{
   "trucks":[
      {
         "name":"MY SUSHI TRUCK",
         "slug":"my-sushi-truck",
         "slogan":"Des sushi dans un truck",
         "cover":"http://tttruck.com/media/cache/square_200/files/37cb625797ac22cf3ee2b4191cfb270fde806af5/4f9915669f919f598cbbd7614bbf0e4c.jpeg",
         "tags":"Japonais",
         "latlng":"45.5026719,2.232488",
         "starttime":"18:00",
         "endtime":"21:00"
      },
      {
         "name":"Le Spizzico Italiano Food Truck",
         "slug":"le-spizzico-italiano-food-truck",
         "slogan":"Le Spizzico Italiano , le Food Truck qu'il vous faut!",
         "cover":"http://tttruck.com/media/cache/square_200/files/c2e8e3e21467301c5a0118743073e6a0ea397e68/a9ed23c0220fdac54cdd50a31542feec.jpeg",
         "tags":"Asiatique, Burger, Italien",
         "latlng":"45.400558,2.4957946",
         "starttime":"8:00",
         "endtime":"12:30"
      },
      {
         "name":"Le Tacot Bourges",
         "slug":"le-tacot",
         "slogan":"Gaillards & douceurs.",
         "cover":"http://tttruck.com/media/cache/square_200/files/c0ab440b29251bd5befc5fdd618543978c1ee81f/11bbb486c2187972afebda84f48a8ee2.jpeg",
         "tags":"Cuisine française, Burger",
         "latlng":"47.0795544,2.3815411",
         "starttime":"19:00",
         "endtime":"22:00"
      },
      {
         "name":"Le Tacot Villages",
         "slug":"le-tacot-ii",
         "slogan":"",
         "cover":"http://tttruck.com/media/cache/square_200/files/62844537fb0039fae5a5766877f8caca0c1c8f76/6a8efdb8fa1f89ebd8950b7ded036602.jpeg",
         "tags":"Cuisine française, Burger",
         "latlng":"47.0787758,2.3991706",
         "starttime":"12:00",
         "endtime":"14:00"
      },
      {
         "name":"DELIZIOSA PIZZA",
         "slug":"deliziosa-pizza",
         "slogan":"",
         "cover":"http://tttruck.com/media/cache/square_200/files/4e390f9ede4c235da0ef20b6dde9c03fee2eb7a6/b890212b48a27edf45589a47e66296e7.jpeg",
         "tags":"",
         "latlng":"47.8627967,1.8743133",
         "starttime":"18:00",
         "endtime":"21:30"
      },
      {
         "name":"La petite pizzeria",
         "slug":"la-petite-pizzeria",
         "slogan":"",
         "cover":"http://tttruck.com/media/cache/square_200/files/8dee0032b17005bb580cfbb87950a4284d4ace19/3135a012bef1fe58be54c1a1a941acc2.png",
         "tags":"Pizza, Sucré",
         "latlng":"45.7687182,4.786445",
         "starttime":"18:00",
         "endtime":"22:00"
      },
      {
         "name":"ROUTE 69",
         "slug":"route-69",
         "slogan":"La cuisine voyage pour vous",
         "cover":"http://tttruck.com/media/cache/square_200/files/64c3bd4631dd5fbcbe04e17cb911fee07eee54ce/798ef6fab551f0d749cef028b0535e13.jpeg",
         "tags":"Cuisine française, Burger",
         "latlng":"45.8448837,4.8543534",
         "starttime":"18:30",
         "endtime":"22:00"
      },
      {
         "name":"The rolling cantine",
         "slug":"the-rolling-cantine",
         "slogan":"The best burger downtown",
         "cover":"http://tttruck.com/media/cache/square_200/files/7f8ddd1401a5d3e4e87d306b3d701ecf1e66c1d2/d6388ee5b066c941aafd9eeda33bfe9a.jpeg",
         "tags":"Burger",
         "latlng":"45.7600009,4.8410206",
         "starttime":"10:00",
         "endtime":"13:30"
      },
      {
         "name":"SEN le food truck du Sport",
         "slug":"sen-le-food-truck-du-sport",
         "slogan":"La Passion du Sport nous rassemble !!",
         "cover":"http://tttruck.com/media/cache/square_200/files/52ea7e0a1b3f86d4a817001379eb4070c07c7b03/ce4ceb29ec8aaa377804e786a3c4b1e3.jpeg",
         "tags":"Burger, Sandwiches-Salades, Américain",
         "latlng":"45.58329,4.772829",
         "starttime":"10:30",
         "endtime":"14:30"
      },
      {
         "name":"Queen Pizza",
         "slug":"queen-pizza",
         "slogan":"Faites un break au Queen Pizza.",
         "cover":"http://tttruck.com/media/cache/square_200/files/79c6ebbb75dc28b777fd6657272796885645c474/ffeeb2d89c220856b6f67eae03fa0703.jpeg",
         "tags":"Pizza",
         "latlng":"45.7718618,4.9795536",
         "starttime":"17:00",
         "endtime":"21:00"
      },
      {
         "name":"itinévin",
         "slug":"itinevin",
         "slogan":"Votre caviste de proximité",
         "cover":"http://tttruck.com/media/cache/square_200/files/restaurant/itinevin/5aa51d0202f2768708f8acec8bfadc18.jpeg",
         "tags":"Vin",
         "latlng":"48.321971,0.821404",
         "starttime":"7:30",
         "endtime":"12:30"
      },
      {
         "name":"Le truck à part",
         "slug":"le-truck-a-part",
         "slogan":"Le truck à m'Angers, facile à m'Angers !",
         "cover":"http://tttruck.com/media/cache/square_200/files/restaurant/le-truck-a-part/cd561e0c01dcda9564a154258ebe9cbc.jpeg",
         "tags":"Cuisine française",
         "latlng":"47.7632836,-0.3299687",
         "starttime":"10:00",
         "endtime":"20:00"
      },
      {
         "name":"Temari Sushi",
         "slug":"temari-sushi",
         "slogan":"Spécialités traditionnelles japonaises",
         "cover":"http://tttruck.com/media/cache/square_200/files/0f3f708c8c921550437d6d9fa8553b97c9809a9f/97c123ab0f625870fb494a1c15e22909.png",
         "tags":"Asiatique, Japonais, Café",
         "latlng":"48.5359398,2.5272745",
         "starttime":"16:30",
         "endtime":"20:00"
      },
      {
         "name":"la Petite Crêperie Ambulante",
         "slug":"la-petite-creperie-ambulante",
         "slogan":"",
         "cover":"http://tttruck.com/media/cache/square_200/files/bb0b5b4ec3dde5ce1762a885a36b083c76de94f7/3665a31d448d861786e7f52fae7d0420.jpeg",
         "tags":"Crêpes-Galettes",
         "latlng":"46.1594007,-1.1486191",
         "starttime":"7:30",
         "endtime":"13:00"
      },
      {
         "name":"L'ApéRochelais",
         "slug":"l-aperochelais",
         "slogan":"",
         "cover":"http://tttruck.com/media/cache/square_200/files/024f2b61aa8c4ffecc6802247e9ebff371cbfe6c/82c9d4f23249e1483be9174d3edd0578.jpeg",
         "tags":"Cuisine française",
         "latlng":"46.157405,-1.1860949",
         "starttime":"10:30",
         "endtime":"14:00"
      },
      {
         "name":"Wassa Wassa Délices",
         "slug":"wassa-wassa-delices",
         "slogan":"Wassa Wassa Délices, Saveurs africaines nomade",
         "cover":"http://tttruck.com/media/cache/square_200/files/4b152f1cd7296de1ac1e9efcc05d9c2db14c53d6/5da001c1cebd739be8bde4a8d3c08bff.jpeg",
         "tags":"Africain",
         "latlng":"48.6070714,2.3035536",
         "starttime":"17:30",
         "endtime":"21:00"
      },
      {
         "name":"Snack & Pasta",
         "slug":"snack-pasta",
         "slogan":"Le food truck près de chez vous",
         "cover":"http://tttruck.com/media/cache/square_200/files/658eca87c3a2c4d2f2c08a42bccdee01e2d80d84/3b933c493dd1f4729415cb6c388b0938.jpeg",
         "tags":"Burger, Italien, Sandwiches-Salades",
         "latlng":"45.299986,-0.9318863",
         "starttime":"18:00",
         "endtime":"21:30"
      },
      {
         "name":"La frit'alienne",
         "slug":"la-frit-alienne",
         "slogan":"DE BONNES FRITES FRAICHES \"maison\"",
         "cover":"http://tttruck.com/media/cache/square_200/files/da22d198b053417d7462256469fa0682f0bd64b4/19ae062d4daad671cc4b943f537d7d81.jpeg",
         "tags":"Burger, Sandwiches-Salades, Cuisine du Monde",
         "latlng":"48.6167441,2.028915",
         "starttime":"18:30",
         "endtime":"21:00"
      },
      {
         "name":"Gagao",
         "slug":"gagao",
         "slogan":"",
         "cover":"http://tttruck.com/media/cache/square_200/files/e377a125300e8706c4b7f387fd892b94844ef447/14b646d6bf52a59b05cd12e46881c08c.jpeg",
         "tags":"Sucré, Café, Bar à jus",
         "latlng":"44.8273018,-0.5565886",
         "starttime":"10:00",
         "endtime":"18:00"
      },
      {
         "name":"franch'country truck",
         "slug":"franch-country-truck",
         "slogan":"food truck jurassien ....",
         "cover":"http://tttruck.com/media/cache/square_200/files/f66625ca124e5fe8f57e7521517b219a3a2c68eb/d94bbe4ad4965503af42b0c731a553fb.jpeg",
         "tags":"Cuisine française, Burger, Sandwiches-Salades",
         "latlng":"47.0908729,5.4972091",
         "starttime":"12:00",
         "endtime":"13:45"
      },
      {
         "name":"LE CAMION GOURMET",
         "slug":"le-camion-gourmet",
         "slogan":"",
         "cover":"http://tttruck.com/media/cache/square_200/files/fea46056042228b92a8fe0932873f6f3884fcc1c/4dd26d51e2e061ce3a80800ae9c03e46.jpeg",
         "tags":"Burger, Sandwiches-Salades, Américain",
         "latlng":"48.3272504,4.1066324",
         "starttime":"12:00",
         "endtime":"14:30"
      },
      {
         "name":"WEST CORNER",
         "slug":"west-corner",
         "slogan":"Créateur de Burger",
         "cover":"http://tttruck.com/media/cache/square_200/files/restaurant/west-corner/58ea8a100382a1a40bc41877f10c08a1.jpeg",
         "tags":"Burger, Américain",
         "latlng":"44.7830198,-0.6543092",
         "starttime":"11:30",
         "endtime":"13:30"
      },
      {
         "name":"réstream's bagel",
         "slug":"restream-s-bagel",
         "slogan":"Bagels & Bagers",
         "cover":"http://tttruck.com/media/cache/square_200/files/85f4675f52cc60b4c93251bb7ee82116af43085d/2181d3055f62183b74ab3c9b26b18a10.jpeg",
         "tags":"Bagel, Burger, Américain",
         "latlng":"46.1796157,-1.3877981",
         "starttime":"18:30",
         "endtime":"21:30"
      },
      {
         "name":"Road Toqués",
         "slug":"roadtoques",
         "slogan":"la bistronomie nous rapproche",
         "cover":"http://tttruck.com/media/cache/square_200/files/1768d754c38d652173d97dd0cf3a99c0c9d9ecfe/154fecf38fa59b9374a878f78311152c.png",
         "tags":"Cuisine française",
         "latlng":"48.7465147,2.266726",
         "starttime":"8:00",
         "endtime":"14:30"
      },
      {
         "name":"Le Chouan'Dwich",
         "slug":"le-chouan-dwich",
         "slogan":"Facile à prononcer, difficile d'y résister!",
         "cover":"http://tttruck.com/media/cache/square_200/files/d4c99cd930787955b923f2d14cdb50103826ade7/6a79f572a551c462d6cb20e95daff273.png",
         "tags":"Cuisine française, Burger, Sandwiches-Salades",
         "latlng":"46.6678542,-1.4399033",
         "starttime":"19:00",
         "endtime":"21:00"
      },
      {
         "name":"Flammatruck",
         "slug":"flammatruck",
         "slogan":"enFLAMMez-vous",
         "cover":"http://tttruck.com/media/cache/square_200/files/restaurant/flammatruck/5f08e515e74b115c3de7cd57cefe8c33.jpeg",
         "tags":"Flammekueche, Terroir",
         "latlng":"48.8032479,2.2642794",
         "starttime":"10:00",
         "endtime":"14:00"
      },
      {
         "name":"AUX SAVEURS DE L'ITALIE",
         "slug":"aux-saveurs-de-l-italie",
         "slogan":"On ne sert que ce que l'on aimerait manger soi même !",
         "cover":"http://tttruck.com/media/cache/square_200/files/9e73750344e90103e22bc20c9fc02db51de6ce3d/a0784fd23156ea701170a58ecaecb740.jpeg",
         "tags":"Pizza",
         "latlng":"48.8172801,2.282046",
         "starttime":"18:00",
         "endtime":"22:00"
      },
      {
         "name":"Toccata Night",
         "slug":"pizza-toccata",
         "slogan":"Le seul et unique camion pizza à Versailles",
         "cover":"http://tttruck.com/media/cache/square_200/files/bc6caaa9ee9be9fcbabb1fc6f3c91974f24a66f2/3050d0e85f5d7fa21b2f8ccc2bba4391.jpeg",
         "tags":"Pizza",
         "latlng":"48.817215,2.127322",
         "starttime":"9:45",
         "endtime":"13:15"
      },
      {
         "name":"\"U.M.M.M...!\"",
         "slug":"u-m-m-m",
         "slogan":"Y'a pas d'heure pour un bon breakfast",
         "cover":"http://tttruck.com/media/cache/square_200/files/c6952c59fc48922b68b0b520250121814d918868/167108bf7f5cb6eac66fcbcd18dad86d.jpeg",
         "tags":"Sucré, Cuisine du Monde, Café",
         "latlng":"48.8204381,2.3378",
         "starttime":"10:00",
         "endtime":"23:00"
      },
      {
         "name":"Café en bullant",
         "slug":"cafe-en-bullant",
         "slogan":"large gamme de cafés de qualité et gourmandises",
         "cover":"http://tttruck.com/media/cache/square_200/files/63f5f161e45aa9f65c4b48eb3daeaa420f2a5648/16cacaed1c2ecb6ad2aa22fed201fc7c.jpeg",
         "tags":"Sucré, Café, Bar à jus",
         "latlng":"48.8229745,2.2967309",
         "starttime":"7:30",
         "endtime":"14:30"
      },
      {
         "name":"TOO COOK",
         "slug":"too-cook",
         "slogan":"Le monde du bout des doigts",
         "cover":"http://tttruck.com/media/cache/square_200/files/2ed3605bc48ee5fb5b41a79d3b725e7fb29c0545/b659d5275f2524122d22deac9d7c0a48.jpeg",
         "tags":"Cuisine française, Cuisine du Monde",
         "latlng":"45.1279732,5.5882234",
         "starttime":"8:00",
         "endtime":"13:15"
      },
      {
         "name":"Cheesers",
         "slug":"cheesers",
         "slogan":"Le Grilled Cheese à la Française...",
         "cover":"http://tttruck.com/media/cache/square_200/files/f93685d0f376c782b683365547776b2a567e6f53/61d0a59d4ec7e98ec21841239e4ce70d.jpeg",
         "tags":"Cuisine française, Sandwiches-Salades, Américain",
         "latlng":"48.8310941,2.3763194",
         "starttime":"12:30",
         "endtime":"15:30"
      },
      {
         "name":"Tooq Tooq",
         "slug":"tooq-tooq",
         "slogan":"le camion des nouilles thaï",
         "cover":"http://tttruck.com/media/cache/square_200/files/restaurant/tooq-tooq/695808d17bfee97a7119c340b1fa22d6.jpeg",
         "tags":"Asiatique, Cuisine du Monde",
         "latlng":"48.8311359,2.3759594",
         "starttime":"12:00",
         "endtime":"15:00"
      },
      {
         "name":"Larry's",
         "slug":"larry-s",
         "slogan":"",
         "cover":"http://tttruck.com/media/cache/square_200/files/f73c1ee849a1fe67de31730cfb366bb510e0c422/8dbe7df7670dd860179238070c6c4106.jpeg",
         "tags":"Américain",
         "latlng":"48.831354,2.3760867",
         "starttime":"12:00",
         "endtime":"22:00"
      },
      {
         "name":"Le Camion Qui Fume II",
         "slug":"le-camion-qui-fume-ii",
         "slogan":"1er Food Truck de France",
         "cover":"http://tttruck.com/media/cache/square_200/files/restaurant/le-camion-qui-fume-ii/bbf3dd3a333ec020e70984e6d0af5dd6.png",
         "tags":"Burger",
         "latlng":"48.8317387,2.3757141",
         "starttime":"12:00",
         "endtime":"14:30"
      },
      {
         "name":"La Brigade",
         "slug":"la-brigade",
         "slogan":"Homemade in Slices",
         "cover":"http://tttruck.com/media/cache/square_200/files/restaurant/la-brigade/ff7c246aa8c7c2effd80f3e8a6b17c66.jpeg",
         "tags":"Rôtisserie, Américain",
         "latlng":"48.8326912,2.3752415",
         "starttime":"12:00",
         "endtime":"14:30"
      },
      {
         "name":"Ô Churrasco",
         "slug":"o-churrasco",
         "slogan":"Le goût des Antilles",
         "cover":"http://tttruck.com/media/cache/square_200/files/0530e09230a343e4f52c925d6e6c552008df7a17/537645945994fe74eac367186f9865c0.jpeg",
         "tags":"Rôtisserie, Sandwiches-Salades, Cuisine du Monde",
         "latlng":"43.6650225,1.5056637",
         "starttime":"8:00",
         "endtime":"13:00"
      },
      {
         "name":"The bbq brother",
         "slug":"the-bbq-brother",
         "slogan":"La qualité est notre métier!",
         "cover":"http://tttruck.com/media/cache/square_200/files/7b82b0309dc3953763f65c01a63d204be8419df6/8069e365d08d7289f9b90c15828ee8f6.png",
         "tags":"Burger, Américain",
         "latlng":"48.8473082,2.370569",
         "starttime":"11:00",
         "endtime":"14:00"
      },
      {
         "name":"Munchies",
         "slug":"munchies",
         "slogan":"Food Truck / Traiteur/ Evénementiel",
         "cover":"http://tttruck.com/media/cache/square_200/files/e60ebfc43747623877f822a28588c130534cfded/ccf5d1ab141595852b5cfcda2ce54102.jpeg",
         "tags":"Cuisine française, Japonais, Méditerranéen",
         "latlng":"48.8472806,2.4340441",
         "starttime":"11:00",
         "endtime":"15:00"
      },
      {
         "name":"caravansérail",
         "slug":"caravanserail",
         "slogan":"Bon, rapide et équilibré... Quoi d'autre",
         "cover":"http://tttruck.com/media/cache/square_200/files/26eeae1e78d6d6a40d56d744d7a3d5aedcb834e6/caa5c9f6557b3a3e2f25015d750c6f9c.png",
         "tags":"Cuisine Orientale, Africain",
         "latlng":"48.8538008,2.3681814",
         "starttime":"19:00",
         "endtime":"22:30"
      },
      {
         "name":"Sabroso",
         "slug":"sabroso",
         "slogan":"Cocina ambulante",
         "cover":"http://tttruck.com/media/cache/square_200/files/a88dc8d31cc4e90c6a2e7c235452c2d0f586e54d/b612c5ed9ba93bbe7603cf5280e0fbe8.png",
         "tags":"Tex-Mex",
         "latlng":"48.8592763,2.293845",
         "starttime":"10:00",
         "endtime":"22:00"
      },
      {
         "name":"The Rolling Pizza",
         "slug":"the-rolling-pizza",
         "slogan":"",
         "cover":"http://tttruck.com/media/cache/square_200/files/11d58d165698e7c51203e848d03e5798b84774d9/48e615e73031d000156947432d57000a.png",
         "tags":"Pizza",
         "latlng":"48.8592763,2.293845",
         "starttime":"10:00",
         "endtime":"22:00"
      },
      {
         "name":"Win Pizz",
         "slug":"win-pizz",
         "slogan":"la pizza gagnante",
         "cover":"http://tttruck.com/media/cache/square_200/files/c0d2c7dd2a356a912b55b07af8e1e3549a0115e8/bbfa07be96acb47322853e2d33b3d811.jpeg",
         "tags":"Pizza",
         "latlng":"48.8592763,2.293845",
         "starttime":"10:00",
         "endtime":"22:00"
      },
      {
         "name":"Bread and Cheese",
         "slug":"bread-and-cheese",
         "slogan":"",
         "cover":"http://tttruck.com/media/cache/square_200/files/680afc129e1ed0f2116674c1f3e62aca6b177cc9/a042c3af99803eacfe10b52c568f94fe.jpeg",
         "tags":"Sandwiches-Salades, Américain",
         "latlng":"48.8592763,2.293845",
         "starttime":"10:00",
         "endtime":"22:00"
      },
      {
         "name":"Le Trotter",
         "slug":"le-trotter",
         "slogan":"Un wraps, peut être plus gros que l'on ne le pense",
         "cover":"http://tttruck.com/media/cache/square_200/files/8c7f6de2e7505973c0b6a0a0d98b1f1a73cac7e5/867b7e7ad421f95371f74ac5720d5203.jpeg",
         "tags":"Cuisine du Monde, Wrap",
         "latlng":"48.8592763,2.293845",
         "starttime":"10:00",
         "endtime":"22:00"
      },
      {
         "name":"Lamamobile Foodtruck",
         "slug":"lamamobile-foodtruck",
         "slogan":"",
         "cover":"http://tttruck.com/media/cache/square_200/files/dc04811673ed2f6678c98101ede79f7607a9feaa/73da07253e10b222b5c6f2cbe3b8af1e.jpeg",
         "tags":"Cuisine du Monde",
         "latlng":"48.8592763,2.293845",
         "starttime":"10:00",
         "endtime":"22:00"
      },
      {
         "name":"WOK N ROLL",
         "slug":"wok-n-roll",
         "slogan":"Manger bon, Manger sain",
         "cover":"http://tttruck.com/media/cache/square_200/files/9471f31252fb6619311d47268eec0d855a1a9fe0/06a2f84898070e30ddfade29d9e813ac.png",
         "tags":"Asiatique, Cuisine française, Cuisine du Monde",
         "latlng":"48.8592763,2.293845",
         "starttime":"10:00",
         "endtime":"22:00"
      },
      {
         "name":"vi & vi",
         "slug":"vi-vi",
         "slogan":"Les meilleures choses se partagent...",
         "cover":"http://tttruck.com/media/cache/square_200/files/9871e6bbd3a71da2fd3902fe1211166583726c7e/81896e6e9d913f5906569d9ead0ce784.jpeg",
         "tags":"Cuisine du Monde",
         "latlng":"48.8592763,2.293845",
         "starttime":"10:00",
         "endtime":"22:00"
      },
      {
         "name":"Moule Walker",
         "slug":"moule-walker",
         "slogan":"Haute Gouture Nomade",
         "cover":"http://tttruck.com/media/cache/square_200/files/f0163eb5fbd30985649d1ff0642f1521fefa10df/015dc31e20e252d3a334c43ad806f531.jpeg",
         "tags":"Cuisine française",
         "latlng":"48.8592763,2.293845",
         "starttime":"10:00",
         "endtime":"22:00"
      },
      {
         "name":"Food Trucks Fest'",
         "slug":"food-truck-s-fest",
         "slogan":"Fête de la Gourmandise !",
         "cover":"http://tttruck.com/media/cache/square_200/files/8bd55cde00d99f66ba4ea8c72aa8696ddd916dc2/f320efe5bf860beb15e7c22f35d2e510.png",
         "tags":"Cuisine française, Burger, Cuisine du Monde",
         "latlng":"48.8608889,2.297894",
         "starttime":"10:00",
         "endtime":"22:00"
      },
      {
         "name":"Cantine california",
         "slug":"cantine-california",
         "slogan":"A little piece of America on a corner near you.",
         "cover":"http://tttruck.com/media/cache/square_200/files/restaurant/cantine-california/f7cd36bef4d32072bb61fc061553c9a1.jpeg",
         "tags":"Burger",
         "latlng":"48.866912,2.3321814",
         "starttime":"11:30",
         "endtime":"14:45"
      },
      {
         "name":"Eat my Truck",
         "slug":"eat-my-truck",
         "slogan":"Nous revisitons le classique américain, avec les produits raffinés et le savoir-faire de la gastronomie française !",
         "cover":"http://tttruck.com/media/cache/square_200/files/restaurant/eat-my-truck/6e5ce6086c86f78ed359dae515e41370.png",
         "tags":"Américain",
         "latlng":"48.8667795,2.3799041",
         "starttime":"19:00",
         "endtime":"0:00"
      },
      {
         "name":"Le Camion Qui Fume I",
         "slug":"le-camion-qui-fume-i",
         "slogan":"1er Food Truck de France",
         "cover":"http://tttruck.com/media/cache/square_200/files/restaurant/le-camion-qui-fume/8124408f7e32be6c738541de89e03629.png",
         "tags":"Burger",
         "latlng":"48.8703901,2.3429715",
         "starttime":"12:00",
         "endtime":"16:00"
      },
      {
         "name":"les food du volant",
         "slug":"les-food-du-volant-1",
         "slogan":"cuisine de bistrot",
         "cover":"http://tttruck.com/media/cache/square_200/files/b77ae9aee04e1b3694d7e2d250e449e690e7c45e/dfcdd684e1673d4e65bccf2425947583.jpeg",
         "tags":"Cuisine française",
         "latlng":"43.630325,1.49211",
         "starttime":"11:30",
         "endtime":"14:30"
      },
      {
         "name":"Le Camion Qui Fume III",
         "slug":"le-camion-qui-fume-iii",
         "slogan":"1er Food Truck de France",
         "cover":"http://tttruck.com/media/cache/square_200/files/restaurant/le-camion-qui-fume-iii/6c104f2e4047d105affd64e266e113b7.jpeg",
         "tags":"Burger",
         "latlng":"48.8749353,2.2789945",
         "starttime":"11:00",
         "endtime":"14:00"
      },
      {
         "name":"Karr Lichou",
         "slug":"karr-lichou",
         "slogan":"VOTRE FOODTRUCK DE CRÊPES À PARIS",
         "cover":"http://tttruck.com/media/cache/square_200/files/85bfa282b542d69b55da8ebec62ca28a85bde9c0/fc640f85156830907a1b6fbf5b2c2cc0.png",
         "tags":"Cuisine française, Crêpes-Galettes, Cuisine du Monde",
         "latlng":"48.8802908,2.2472379",
         "starttime":"12:00",
         "endtime":"18:00"
      },
      {
         "name":"Nolita Street",
         "slug":"nolita-street",
         "slogan":"We are beautyfood!",
         "cover":"http://tttruck.com/media/cache/square_200/files/3e3e50d9d19d9871317c16da7c75768631dbf4fc/4b5692f1c17ccaed01118900aac62c1a.jpeg",
         "tags":"Italien",
         "latlng":"48.8921107,2.2109857",
         "starttime":"19:00",
         "endtime":"22:30"
      },
      {
         "name":"La Cantina de Gloria",
         "slug":"la-cantina-de-gloria",
         "slogan":"Perrito caliente BIO Latino",
         "cover":"http://tttruck.com/media/cache/square_200/files/restaurant/la-cantina-de-gloria/cc1a8de8190e3e5ef24185d8c76d6d6b.jpeg",
         "tags":"Cuisine du Monde, Tex-Mex, Triporteur",
         "latlng":"48.8905882,2.3917407",
         "starttime":"18:00",
         "endtime":"21:30"
      },
      {
         "name":"le burger de choc",
         "slug":"le-burger-de-choc",
         "slogan":"",
         "cover":"http://tttruck.com/media/cache/square_200/files/d51ffd0832b8b075c2bcd397ea46ad4e69c72db1/05ee14b450b0e6798f62e57716e2f8f6.png",
         "tags":"Burger, Sandwiches-Salades",
         "latlng":"45.142151,5.718034",
         "starttime":"11:00",
         "endtime":"15:00"
      },
      {
         "name":"le quartier gourmand",
         "slug":"le-quartier-gourmand",
         "slogan":"",
         "cover":"http://tttruck.com/media/cache/square_200/files/b3565ae3412e04276fedc771f2664b4c0b7b6023/b65726f54f383eeb363994232673c2fa.jpeg",
         "tags":"Burger, Sandwiches-Salades, Cuisine du Monde",
         "latlng":"48.9094946,2.1780072",
         "starttime":"18:00",
         "endtime":"22:00"
      },
      {
         "name":"Grain De Sucre",
         "slug":"grain-de-sucre",
         "slogan":"",
         "cover":"http://tttruck.com/media/cache/square_200/files/da18ada2ab898cde8994d84b2bd8fced9129ecdb/88ad23fe0e823ecafd790d1e51d8c6f3.png",
         "tags":"Sucré",
         "latlng":"43.946459,4.213944",
         "starttime":"8:00",
         "endtime":"14:00"
      },
      {
         "name":"Gourmet trotteur",
         "slug":"gourmet-trotteur",
         "slogan":"Le bon sens a du goût",
         "cover":"http://tttruck.com/media/cache/square_200/files/restaurant/gourmet-trotteur/5ef54ae09b976e80e5decc5041db22ec.jpeg",
         "tags":"Sandwiches-Salades",
         "latlng":"43.6000082,1.4456641",
         "starttime":"12:00",
         "endtime":"14:30"
      },
      {
         "name":"Eat The Road",
         "slug":"eat-the-road",
         "slogan":"Un Food Truck Original ! Des produits frais et de qualité séléctionnés et achetés localement",
         "cover":"http://tttruck.com/media/cache/square_200/files/restaurant/eat-the-road/ae87e65c14b4210cfcf562db01b33873.jpeg",
         "tags":"Burger",
         "latlng":"48.910696,2.288943",
         "starttime":"11:30",
         "endtime":"14:30"
      },
      {
         "name":"Tartobus",
         "slug":"tartobus",
         "slogan":"Des tartes qui roulent, des soupes qui déménagent",
         "cover":"http://tttruck.com/media/cache/square_200/files/restaurant/tartobus/b73477f0464c23e569734b616d53b35c.jpeg",
         "tags":"Cuisine française, Sandwiches-Salades",
         "latlng":"44.383724,4.989187",
         "starttime":"8:00",
         "endtime":"12:15"
      },
      {
         "name":"Bouche B",
         "slug":"bouche-b",
         "slogan":"Bouche b, des burgers chics pour les fines bouches !",
         "cover":"http://tttruck.com/media/cache/square_200/files/restaurant/bouche-b/57fa9d0b859afe33293f92f5233216da.jpeg",
         "tags":"Burger",
         "latlng":"43.5941531,1.4489675",
         "starttime":"19:00",
         "endtime":"22:00"
      },
      {
         "name":"lefoodtruck",
         "slug":"lefoodtruck",
         "slogan":"100% MAISON",
         "cover":"http://tttruck.com/media/cache/square_200/files/69288dabaeed7b4833b64bc54da95d7ebbef6bbf/3814d4a766e0b49f9b26ab73354143b7.jpeg",
         "tags":"Cuisine française, Burger, Café",
         "latlng":"45.9297682,6.1225072",
         "starttime":"11:00",
         "endtime":"14:30"
      },
      {
         "name":"MAKI&CO",
         "slug":"maki-co",
         "slogan":"Japan Food Truck",
         "cover":"http://tttruck.com/media/cache/square_200/files/a6f34d6644e540ec70ac2791f840f650e18691b9/a18aaf8d17fb82c97f0fce8ef36f257f.png",
         "tags":"Asiatique, Japonais, Cuisine du Monde",
         "latlng":"45.2835124,5.8817619",
         "starttime":"18:00",
         "endtime":"21:00"
      },
      {
         "name":"food truck indien",
         "slug":"food-truck-indien",
         "slogan":"concept  cheez naan & frites fraiches",
         "cover":"http://tttruck.com/media/cache/square_200/files/397a354be4fb97480a344226dd24b47a4207f02c/fe23591e7d63698f463347754fb64f3b.jpeg",
         "tags":"Sandwiches-Salades, Cuisine du Monde",
         "latlng":"48.9481519,2.5249282",
         "starttime":"12:00",
         "endtime":"22:00"
      },
      {
         "name":"Made in fresh",
         "slug":"made-in-fresh",
         "slogan":"",
         "cover":"http://tttruck.com/media/cache/square_200/files/58b1818d8a820cf19122d141f5953e6337cf01a9/4f224b7a41cf7d3d32edbc6956cb5b3b.jpeg",
         "tags":"Pâtes, Burger",
         "latlng":"47.156644,-1.537828",
         "starttime":"11:30",
         "endtime":"14:00"
      },
      {
         "name":"Délicrep' Truck",
         "slug":"delicrep-truck",
         "slogan":"Tous les goûts sont dans... mon Truck!",
         "cover":"http://tttruck.com/media/cache/square_200/files/3ace251020df2177afc97caeb5d757b9393ffa91/6b98442b566cf1289c27c5cdb115cbe8.jpeg",
         "tags":"Cuisine française, Sucré, Crêpes-Galettes",
         "latlng":"48.9989854,2.188183",
         "starttime":"11:00",
         "endtime":"19:00"
      },
      {
         "name":"SushiJu",
         "slug":"sushiju",
         "slogan":"« Le Sushi c’est d’abord une passion »",
         "cover":"http://tttruck.com/media/cache/square_200/files/restaurant/sushiju/ff5e79aec149682818c553963a7f92ea.jpeg",
         "tags":"Japonais",
         "latlng":"44.1351605,4.8101084",
         "starttime":"18:30",
         "endtime":"21:00"
      },
      {
         "name":"Hervé Food Truck Gourmand",
         "slug":"herve-food-truck-gourmand",
         "slogan":"Hervé Food Truck Gourmand",
         "cover":"http://tttruck.com/media/cache/square_200/files/79f407d9d6f03ccb5367b9dfed99e492d0ab602a/53a45352e6687e0c930ddf00f4c2f376.jpeg",
         "tags":"Cuisine française, Rôtisserie",
         "latlng":"46.1930665,6.2313237",
         "starttime":"10:30",
         "endtime":"20:00"
      },
      {
         "name":"le globe trotteur cuisine",
         "slug":"le-globe-trotteur-cuisine",
         "slogan":"la fraicheur des produits et le goût en bouche.",
         "cover":"http://tttruck.com/media/cache/square_200/files/e1999306cf3ded00e7169cda633ba60a9cd6875a/25e7e2064ac21cb4945c86408e7db09e.jpeg",
         "tags":"Burger, Sandwiches-Salades, Cuisine du Monde",
         "latlng":"49.0135521,2.2515185",
         "starttime":"11:00",
         "endtime":"13:45"
      },
      {
         "name":"miva poulets",
         "slug":"miva-poulets",
         "slogan":"",
         "cover":"http://tttruck.com/media/cache/square_200/files/7b1f48ac5babaedf1809f265e8984fd838f19128/d1d567b8f81294ac46132169843e60db.jpeg",
         "tags":"Rôtisserie",
         "latlng":"46.8254471,-1.7613987",
         "starttime":"8:00",
         "endtime":"13:00"
      },
      {
         "name":"Les garçons ...foodtruck",
         "slug":"les-garcons-foodtruck",
         "slogan":"mangez bien...mangez bien être !",
         "cover":"http://tttruck.com/media/cache/square_200/files/f6d625184f1bd57b0c288a5377c320d43d9baab8/29cf3dae7d865f7ed4088a5a8667ec42.jpeg",
         "tags":"Burger, Sandwiches-Salades, Méditerranéen",
         "latlng":"44.1212723,4.8403501",
         "starttime":"11:00",
         "endtime":"14:30"
      },
      {
         "name":"Agence Cooking",
         "slug":"agence-cooking",
         "slogan":"",
         "cover":"http://tttruck.com/media/cache/square_200/files/cb0a5441d31f65d20c45264860355cb05d87a9ad/f0910e89306650bdb735e8afde7b98d9.png",
         "tags":"Asiatique, Cuisine française, Cuisine du Monde",
         "latlng":"43.4550206,1.6143492",
         "starttime":"7:30",
         "endtime":"12:30"
      },
      {
         "name":"Chick'n kreyol",
         "slug":"chick-n-kreyol",
         "slogan":"Pani pwoblèm",
         "cover":"http://tttruck.com/media/cache/square_200/files/3bb37d85ddb9fc42b7da88198d3a117341610802/5e992300b4d7ce04d76cc6fc03e84c31.jpeg",
         "tags":"Cuisine du Monde",
         "latlng":"49.030652,2.0219014",
         "starttime":"18:00",
         "endtime":"22:00"
      },
      {
         "name":"La France Qui Roule",
         "slug":"la-france-qui-roule",
         "slogan":"Produits frais et locaux en format populaire (burger)",
         "cover":"http://tttruck.com/media/cache/square_200/files/205056c39c232fc840dbed1f0804719e84a57227/43b9944614b391b745bfecee97049952.png",
         "tags":"Cuisine française, Burger",
         "latlng":"46.3074992,6.3076527",
         "starttime":"11:30",
         "endtime":"14:00"
      },
      {
         "name":"Haiti Food Truck",
         "slug":"haiti-food-truck",
         "slogan":"Sé la bagay la bon!",
         "cover":"http://tttruck.com/media/cache/square_200/files/8ddd263773e00e53f55f8db5dbc438fee0e3c794/dc2ad06587a7af5129cd0ef6c8f2846a.jpeg",
         "tags":"Cuisine du Monde",
         "latlng":"49.0556955,2.0188376",
         "starttime":"19:00",
         "endtime":"23:00"
      },
      {
         "name":"Le bus Rouge",
         "slug":"le-bus-rouge",
         "slogan":"Cuisine Gourmande de Saison dans un Bus Anglais",
         "cover":"http://tttruck.com/media/cache/square_200/files/1fc6433ee0d53d8e6ac7b27c0f52798c22813268/a6142f4ce66a2220a20ce3986a537a52.jpeg",
         "tags":"Cuisine française, Sandwiches-Salades, Cuisine du Monde",
         "latlng":"49.0619874,2.0016374",
         "starttime":"11:30",
         "endtime":"19:00"
      },
      {
         "name":"Barbeuk Truck",
         "slug":"barbeuk-truck",
         "slogan":"Food Truck Montpellier - Poulet braisé, brochette, burger et frite maison",
         "cover":"http://tttruck.com/media/cache/square_200/files/2c8d34cb644043127ab6e5edfb30eb5d3691908e/837871928d836762eab130547b3019da.jpeg",
         "tags":"Burger, Rôtisserie, Américain",
         "latlng":"43.5865876,3.8892632",
         "starttime":"19:00",
         "endtime":"5:00"
      },
      {
         "name":"AIR FOOD",
         "slug":"air-food",
         "slogan":"Air Food : Compagnie culinaire",
         "cover":"http://tttruck.com/media/cache/square_200/files/66eaa26cc11561167f695b71f402c76e731c2209/5e0bb8cff5b377395902f0c06f4c66d4.png",
         "tags":"Burger, Italien, Cuisine du Monde",
         "latlng":"43.9649954,4.8017473",
         "starttime":"10:00",
         "endtime":"15:00"
      },
      {
         "name":"WOKERS",
         "slug":"wokers",
         "slogan":"The Wok and Noodles food-truck !",
         "cover":"http://tttruck.com/media/cache/square_200/files/52f11be598469893aec82acab98aec3e10b3c4e7/2d8a293346daf68abcf098ab6e1cd380.png",
         "tags":"Asiatique, Cuisine française, Cuisine du Monde",
         "latlng":"43.3107884,1.970416",
         "starttime":"10:00",
         "endtime":"14:30"
      },
      {
         "name":"PiZzA KiLA 82",
         "slug":"pizza-kila-82",
         "slogan":"PiZzA KiLA : La Qualité Près D'Chez Toi !!!",
         "cover":"http://tttruck.com/media/cache/square_200/files/bb5a0b3decc8224e08aed052340fc1f68273ae28/12ffebe336702eed6a398a7fdb8fc317.jpeg",
         "tags":"Kebab, Pizza, Burger",
         "latlng":"43.488755,3.705252",
         "starttime":"11:00",
         "endtime":"23:00"
      },
      {
         "name":"AU VIN DIU",
         "slug":"au-vin-diu",
         "slogan":"Bar à vins, caviste, proposant des planches de charcuteries, fromages, crudités et dégustations des vins",
         "cover":"http://tttruck.com/media/cache/square_200/files/400398e1d598d603d651b7c34985ded2b4b02c5e/dde9047f7f81a4339a53c1a376fef923.jpeg",
         "tags":"Cuisine française",
         "latlng":"43.562289,3.952127",
         "starttime":"8:00",
         "endtime":"13:00"
      },
      {
         "name":"Le Cam'Miam",
         "slug":"le-cam-miam",
         "slogan":"Votre resto'mobil au  pied du bureau ou en bas de chez moi...",
         "cover":"http://tttruck.com/media/cache/square_200/files/03a5a72241deb37926643c4e71d11cacc199148e/d87e76ea0a2b728db43e4e88abc382d7.jpeg",
         "tags":"Cuisine française, Burger, Cuisine du Monde",
         "latlng":"44.004336,4.958824",
         "starttime":"18:30",
         "endtime":"21:30"
      },
      {
         "name":"le camion gourmand",
         "slug":"le-camion-gourmand-1",
         "slogan":"spécialités burgers",
         "cover":"http://tttruck.com/media/cache/square_200/files/054e4291e0123ed35bf42c038d638883b61b838f/f479af1e6780ffad763064f136c07bb3.png",
         "tags":"Pizza, Burger, Sandwiches-Salades",
         "latlng":"44.0072733,5.050295",
         "starttime":"12:00",
         "endtime":"14:00"
      },
      {
         "name":"Petit Tonkinois",
         "slug":"petit-tonkinois",
         "slogan":"Le Food Truck vietnamien en Pays d'Aix !",
         "cover":"http://tttruck.com/media/cache/square_200/files/af75cfff3b4967cc65084fe9c76b09b74180c848/2d3a0258091946ddea6537e03f4aa4e1.png",
         "tags":"Asiatique, Chinois, Cuisine du Monde",
         "latlng":"43.9057115,4.893582",
         "starttime":"18:30",
         "endtime":"21:30"
      },
      {
         "name":"le truck normand",
         "slug":"le-truck-normand",
         "slogan":"Un Truck rien que pour vous",
         "cover":"http://tttruck.com/media/cache/square_200/files/8143a437fa93aa3f2ec701aa3663219def8a8b00/bc57a51629ae7fadbefa684a63230bfc.png",
         "tags":"Cuisine française, Burger, Sandwiches-Salades",
         "latlng":"49.135696,0.6711279",
         "starttime":"11:00",
         "endtime":"14:00"
      },
      {
         "name":"Event Burger",
         "slug":"le-kiosque-a-burgers",
         "slogan":"Du bon dans du beau",
         "cover":"http://tttruck.com/media/cache/square_200/files/a1be964f2c70cb8151cd55c7519b4721322ff574/6dd837871ba90c93bbd524c8e6293f90.jpeg",
         "tags":"Burger",
         "latlng":"49.4170964,2.8238487",
         "starttime":"11:30",
         "endtime":"13:30"
      },
      {
         "name":"Le Chalet Des Saveurs",
         "slug":"le-chalet-des-saveurs",
         "slogan":"Le spécialiste du Hamburger Frites Maison",
         "cover":"http://tttruck.com/media/cache/square_200/files/restaurant/le-chalet-des-saveurs/da250b5f4656daa8f9d0b1e72384a3f2.jpeg",
         "tags":"Burger",
         "latlng":"43.8781616,5.3884129",
         "starttime":"19:00",
         "endtime":"21:00"
      },
      {
         "name":"The Mother Road",
         "slug":"the-mother-road",
         "slogan":"",
         "cover":"http://tttruck.com/media/cache/square_200/files/4f4c4e24dc52338aceb3f5b4e6e8d8a1c4fe202e/89e95c7112a603ed61ae2d897788efd0.jpeg",
         "tags":"Mexicain, Cuisine du Monde, Américain",
         "latlng":"49.258329,4.031696",
         "starttime":"11:30",
         "endtime":"14:00"
      },
      {
         "name":"Le Java Bali",
         "slug":"le-java-bali",
         "slogan":"Saveurs d'Indonésie",
         "cover":"http://tttruck.com/media/cache/square_200/files/d4aed6407dab269da61c096def6591442bf852c3/e0f402d59829414e73a9eca9b8c107fe.jpeg",
         "tags":"Asiatique, Cuisine du Monde",
         "latlng":"49.4383087,1.1015937",
         "starttime":"9:00",
         "endtime":"18:00"
      },
      {
         "name":"La popote Créole",
         "slug":"la-popote-creole",
         "slogan":"La popote créole le food truck que l'ont raffoles",
         "cover":"http://tttruck.com/media/cache/square_200/files/78a7c3b31adca78988b4252116657cac7d8f4448/5785afbbcd0cee922ef57ba021d55d59.png",
         "tags":"Sucré, Sandwiches-Salades, Cuisine du Monde",
         "latlng":"43.7888949,-0.934492",
         "starttime":"11:00",
         "endtime":"14:00"
      },
      {
         "name":"Un Truck de Ouf",
         "slug":"un-truck-de-ouf",
         "slogan":"Un Truck de Of vous propose exclusivement des produits frais et fait camion.",
         "cover":"http://tttruck.com/media/cache/square_200/files/1f9fff6435b681cf1afd11fc4b290647d8448ea3/640a39248ffc38142b6dee04e602f6be.png",
         "tags":"Burger",
         "latlng":"43.607073,5.063777",
         "starttime":"18:30",
         "endtime":"21:30"
      },
      {
         "name":"Le Dauphin",
         "slug":"le-dauphin",
         "slogan":"",
         "cover":"http://tttruck.com/media/cache/square_200/files/bcec5630b1c0519b748587f05e69fa7e4d903f3c/9df0d02552a78f49443a1be7e296bba3.jpeg",
         "tags":"Kebab, Burger, Sandwiches-Salades",
         "latlng":"49.3499573,0.5413127",
         "starttime":"10:00",
         "endtime":"15:00"
      },
      {
         "name":"Pizza Flo",
         "slug":"pizza-flo",
         "slogan":"",
         "cover":"http://tttruck.com/media/cache/square_200/files/b2cc375c12eadea4c4c50c6194410c7b06c62798/f18ac4d22b9bae203339fbd1c5c287c2.jpeg",
         "tags":"Pizza, Italien",
         "latlng":"49.504504,3.451598",
         "starttime":"12:00",
         "endtime":"14:00"
      },
      {
         "name":"Un camion dans la ville",
         "slug":"un-camion-dans-la-ville",
         "slogan":"",
         "cover":"http://tttruck.com/media/cache/square_200/files/9ad6be35dcfb6079386b6d99ea829b972f15fa38/aa24c096694de4c37c57948eca66b699.jpeg",
         "tags":"Bagel, Burger, Sandwiches-Salades",
         "latlng":"49.543453,0.95813",
         "starttime":"11:00",
         "endtime":"17:00"
      },
      {
         "name":"MAD'IN TRUCK",
         "slug":"mad-in-truck",
         "slogan":"",
         "cover":"http://tttruck.com/media/cache/square_200/files/2dd39e979e2b62415773597952f06fcc6bf2096f/e8163524386d3a85132ed0a94d7539f0.jpeg",
         "tags":"Burger",
         "latlng":"43.5614909,5.431363",
         "starttime":"19:00",
         "endtime":"21:30"
      },
      {
         "name":"Mister Thot Burger",
         "slug":"mister-thot-burger",
         "slogan":"Des produits frais et maison, c'est l'engagement Mister Thot !",
         "cover":"http://tttruck.com/media/cache/square_200/files/restaurant/mister-thot-burger/e9063c6c7cc055375afa6f53f22025fe.jpeg",
         "tags":"Burger, Américain",
         "latlng":"48.1116342,6.5749452",
         "starttime":"19:00",
         "endtime":"20:30"
      },
      {
         "name":"Au sain’dwich",
         "slug":"au-sain-dwich",
         "slogan":"Le Plaisir de l’Equilibre",
         "cover":"http://tttruck.com/media/cache/square_200/files/b5c88fd4a495e8a70c172069044c5d093a4ef9f6/dc97393569a846b4bf7f189e939f768a.jpeg",
         "tags":"Burger, Sandwiches-Salades, Café",
         "latlng":"43.5079235,5.4018473",
         "starttime":"11:30",
         "endtime":"14:30"
      },
      {
         "name":"Street Café",
         "slug":"street-cafe",
         "slogan":"L'instant New Yorkais !",
         "cover":"http://tttruck.com/media/cache/square_200/files/8a644d47cf958fba52aba4691e3ad5d6befde457/632aee156ef01973711f73927cd80aa8.jpeg",
         "tags":"Bagel, Américain, Café",
         "latlng":"42.6418735,2.7675843",
         "starttime":"19:00",
         "endtime":"21:00"
      },
      {
         "name":"OJAI - food",
         "slug":"ojai-food-1",
         "slogan":"",
         "cover":"http://tttruck.com/media/cache/square_200/files/91d6ca7ce8d833d68829c0f9343f9d411aaaf4a3/2066a46c504aee4532d371656f23586c.png",
         "tags":"Burger",
         "latlng":"43.2898736,5.4945191",
         "starttime":"10:00",
         "endtime":"20:00"
      },
      {
         "name":"La Mâove",
         "slug":"la-maove",
         "slogan":"",
         "cover":"http://tttruck.com/media/cache/square_200/files/27d08bee2a8f3d13331565fa62982d6b1ce504e5/3f60973f18478411b388099b08271df1.jpeg",
         "tags":"Sucré, Bar à jus",
         "latlng":"49.893506,0.870125",
         "starttime":"10:00",
         "endtime":"22:00"
      },
      {
         "name":"On Mange Thaï",
         "slug":"on-mange-thai",
         "slogan":"",
         "cover":"http://tttruck.com/media/cache/square_200/files/c2c2ca9e25543b266e51e196f963fdd921630e40/473209bdac52ebf0fdc4b034e588c99c.jpeg",
         "tags":"Asiatique",
         "latlng":"43.2945779,5.5686577",
         "starttime":"9:00",
         "endtime":"13:00"
      },
      {
         "name":"Star Truck",
         "slug":"star-truck",
         "slogan":"Best burgers for real people",
         "cover":"http://tttruck.com/media/cache/square_200/files/restaurant/star-truck/208875796ad4d374dcc20fefd98c3b51.gif",
         "tags":"Burger, Américain",
         "latlng":"43.4262305,-1.6038028",
         "starttime":"12:00",
         "endtime":"15:00"
      },
      {
         "name":"BUZZ FOOD TRUCK",
         "slug":"buzz-food-truck",
         "slogan":"LE TRUCK QUI CHANGE",
         "cover":"http://tttruck.com/media/cache/square_200/files/b4fbaeee86fd7bca44da0e57dd4b83ef80bc734f/bef62faacf13cc91b35e5846f48a347f.png",
         "tags":"Cuisine française, Burger, Américain",
         "latlng":"49.1193074,6.1757236",
         "starttime":"11:30",
         "endtime":"22:00"
      },
      {
         "name":"BUZZ FOOD TRUCK - FISH AND CHIPS",
         "slug":"buzz-food-truck-fish-and-chips",
         "slogan":"LE TRUCK QUI CHANGE...",
         "cover":"http://tttruck.com/media/cache/square_200/files/5b10bd302136c45cf045d23a6a243d5a700cfbb4/5dbf052ca10e38691fec949798ba86d3.png",
         "tags":"Burger, Cuisine du Monde, Américain",
         "latlng":"49.1193074,6.1757236",
         "starttime":"11:30",
         "endtime":"22:00"
      },
      {
         "name":"La fourchette qui roule",
         "slug":"la-fourchette-qui-roule",
         "slogan":"1er Food Truck (since 2012/2013) . Le camion restaurant à la française, un repas qui associe simplicité, fraîcheur et équilibre",
         "cover":"http://tttruck.com/media/cache/square_200/files/restaurant/la-fourchette-qui-roule/62c4db1be847ca8b767ef61e8ba24d16.jpeg",
         "tags":"Cuisine française, Burger, Américain",
         "latlng":"43.1119029,5.938879",
         "starttime":"18:00",
         "endtime":"23:00"
      },
      {
         "name":"Food Truck Le Rapido",
         "slug":"food-truck-le-rapido",
         "slogan":"Food truck Restauration Rapide Cuisine ambulante",
         "cover":"http://tttruck.com/media/cache/square_200/files/638863ecdccb67a7346d89187f4b4a41850b59c6/9480fc8dab91ab1011b8846d0a6a15b9.jpeg",
         "tags":"Asiatique, Cuisine française, Sandwiches-Salades",
         "latlng":"49.3604073,6.1388169",
         "starttime":"11:00",
         "endtime":"14:00"
      },
      {
         "name":"Where is Tom?",
         "slug":"where-is-tom",
         "slogan":"",
         "cover":"http://tttruck.com/media/cache/square_200/files/restaurant/where-is-tom/98e351f6fca9fd85f36ac9eb26f524a4.jpeg",
         "tags":"Burger",
         "latlng":"47.7077536,-3.3812694",
         "starttime":"12:00",
         "endtime":"14:30"
      },
      {
         "name":"Mon Camion Courtepaille - la Valette du Var",
         "slug":"mon-camion-courtepaille-la-valette-du-var",
         "slogan":"Manger vite et bon au coin de la rue",
         "cover":"http://tttruck.com/media/cache/square_200/files/6a97ee9cbd51675d652b95fbca7867423ad5d7bd/3008fea82288c85e5a735932f57b5afc.jpeg",
         "tags":"Burger, Américain",
         "latlng":"43.1404924,6.0025605",
         "starttime":"11:30",
         "endtime":"14:30"
      },
      {
         "name":"SHEF MITTONNE",
         "slug":"shef-mittonne",
         "slogan":"Tout est possible dans la limite du possible",
         "cover":"http://tttruck.com/media/cache/square_200/files/blank.png",
         "tags":"Cuisine française, Burger, Poisson",
         "latlng":"49.3834178,-1.6794615",
         "starttime":"9:00",
         "endtime":"23:55"
      },
      {
         "name":"La Vache Folle",
         "slug":"la-vache-folle",
         "slogan":"Vachement Frais Follement Bon",
         "cover":"http://tttruck.com/media/cache/square_200/files/21ebb6e68f4f3c4a732ae2786d5070adc608e02d/60a069d5f1861b2abeeed6636a2cc048.jpeg",
         "tags":"Burger, Américain",
         "latlng":"43.136121,6.0254064",
         "starttime":"11:30",
         "endtime":"14:30"
      },
      {
         "name":"Times of Burger",
         "slug":"times-of-burger",
         "slogan":"",
         "cover":"http://tttruck.com/media/cache/square_200/files/b5cc798156406da2b344c3dbd583aa72d515dbd0/966d70e0a31e1794790e1588221236b7.jpeg",
         "tags":"Burger, Américain",
         "latlng":"43.1294859,6.1614585",
         "starttime":"18:30",
         "endtime":"21:30"
      },
      {
         "name":"Le Burger",
         "slug":"le-burger",
         "slogan":"Leburger, the french touch",
         "cover":"http://tttruck.com/media/cache/square_200/files/95e10e0b9cb087003fb681f15ea68a8d6b60a634/c5ad1188b6e93ffe73b08d87c723bf8a.jpeg",
         "tags":"Burger, Sandwiches-Salades, Américain",
         "latlng":"43.4705959,6.7367911",
         "starttime":"11:30",
         "endtime":"14:00"
      },
      {
         "name":"Toulet tout beurre tout crème",
         "slug":"toulet-tout-beurre-tout-creme",
         "slogan":"Notre passion, Votre plaisir !",
         "cover":"http://tttruck.com/media/cache/square_200/files/a57534c6b32a242323c3a6e1ab4503c43f4e2327/8bf766216644ec52e8d599f3899677f0.jpeg",
         "tags":"Cuisine française, Pizza, Sucré",
         "latlng":"50.4614787,1.7597254",
         "starttime":"8:30",
         "endtime":"13:00"
      },
      {
         "name":"Miam j'ai faim",
         "slug":"miam-j-ai-faim",
         "slogan":"miam j'ai faim, c'est mon truck",
         "cover":"http://tttruck.com/media/cache/square_200/files/4203704c094a559843d6375a230e2472cf513740/259f280c6a2cac149a91800abd1e2c73.jpeg",
         "tags":"Cuisine française, Cuisine du Monde",
         "latlng":"48.5624119,-3.152352",
         "starttime":"9:00",
         "endtime":"14:30"
      },
      {
         "name":"Green Vibes Snack",
         "slug":"green-vibes-snack",
         "slogan":"100% Vegan, Bio, Fait Maison",
         "cover":"http://tttruck.com/media/cache/square_200/files/9823c4474de003789cc7e4bc04cd0517220082af/34e84d5b83430ecbb826cfd4acab379d.jpeg",
         "tags":"Burger, Cuisine du Monde, Méditerranéen",
         "latlng":"43.5521807,7.0129283",
         "starttime":"8:00",
         "endtime":"13:30"
      },
      {
         "name":"Original food truck Mania",
         "slug":"original-food-truck-mania",
         "slogan":"Un événement d'un nouveau genre",
         "cover":"http://tttruck.com/media/cache/square_200/files/d7c4f16219c0808eefc2b56bd0526c40c785c238/257bfe2c9cb41a28c78df977061557fa.png",
         "tags":"Burger, Poisson, Libanais",
         "latlng":"43.552847,7.017369",
         "starttime":"10:00",
         "endtime":"15:00"
      },
      {
         "name":"Son of a Bun Antibes",
         "slug":"son-of-a-bun-antibes",
         "slogan":"BADASS BURGERS meilleurs Burgers de la côte d'Azur",
         "cover":"http://tttruck.com/media/cache/square_200/files/f4415a5aecabc4cf0bfeb17b7f0221e9dd9e6f30/e839a9729520624c6396b3b6943619ec.jpeg",
         "tags":"Burger",
         "latlng":"43.577744,7.1070763",
         "starttime":"11:30",
         "endtime":"14:30"
      },
      {
         "name":"Le P'tit Resto Mobile",
         "slug":"le-p-tit-resto-mobile",
         "slogan":"",
         "cover":"http://tttruck.com/media/cache/square_200/files/20a6a61472d994f08875c4a4e81b8cb7e54c02dd/f465c3cbdcb4435b2cc3c69d5f0295af.png",
         "tags":"Burger",
         "latlng":"47.8860953,-3.988073",
         "starttime":"12:00",
         "endtime":"21:00"
      },
      {
         "name":"Monde de Food",
         "slug":"monde-de-food",
         "slogan":"Faites une pause pour dévorer le Monde!",
         "cover":"http://tttruck.com/media/cache/square_200/files/8dba7b54b4981a3d861764def939b033f5a34bdc/55743048d21c15b27a5a0b3adf4d2f7f.jpeg",
         "tags":"Cuisine du Monde, Américain, Tex-Mex",
         "latlng":"50.9589755,1.8269006",
         "starttime":"12:00",
         "endtime":"14:00"
      },
      {
         "name":"Pizza Tony",
         "slug":"pizza-tony",
         "slogan":"Reconnu depuis 25 ans",
         "cover":"http://tttruck.com/media/cache/square_200/files/527e6322c2bb37434ee56bb510cb65b849653f5d/4fe0f7888cb0ee8374ab25e91c24b9f7.jpeg",
         "tags":"Pizza",
         "latlng":"48.986011,2.229632",
         "starttime":"18:00",
         "endtime":"22:00"
      },
      {
         "name":"My French Burger",
         "slug":"my-french-burger",
         "slogan":"",
         "cover":"http://tttruck.com/media/cache/square_200/files/restaurant/my-french-burger/104c8c7f2570bed52b378884cc11d334.jpeg",
         "tags":"Burger",
         "latlng":"43.6007022,7.0764782",
         "starttime":"11:30",
         "endtime":"15:00"
      }
   ]
}
