{
    "trucks": [
        {
            "name": "MY SUSHI TRUCK",
            "slug": "my-sushi-truck",
            "slogan": "Des sushi dans un truck",
            "cover": "kdegoocbhxi85qjr6tu5",
            "tags": "Japonais",
            "starttime": "18:00",
            "endtime": "21:00",
            "location": {
                "city": "Saint-Angel",
                "country": "France",
                "street": "Place de la Mairie",
                "street_number": "1",
                "zipcode": "19200",
                "region": "Nouvelle-Aquitaine",
                "state": "Corrèze",
                "latlng": "45.5026719,2.232488"
            }
        },
        {
            "name": "Le Spizzico Italiano Food Truck",
            "slug": "le-spizzico-italiano-food-truck",
            "slogan": "Le Spizzico Italiano , le Food Truck qu'il vous faut!",
            "cover": "xvwboyhpit7c6fbzyoxf",
            "tags": "Asiatique, Burger, Italien",
            "starttime": "8:00",
            "endtime": "12:30",
            "location": {
                "city": "Bort-les-Orgues",
                "country": "France",
                "street": "Square Marceau",
                "street_number": "27",
                "zipcode": "19110",
                "region": "Nouvelle-Aquitaine",
                "state": "Corrèze",
                "latlng": "45.400558,2.4957946"
            }
        },
        {
            "name": "Le Tacot Bourges",
            "slug": "le-tacot",
            "slogan": "Gaillards & douceurs.",
            "cover": "qgtj5bbipcqqnvdvryff",
            "tags": "Cuisine française, Burger",
            "starttime": "19:00",
            "endtime": "22:00",
            "location": {
                "city": "Bourges",
                "country": "France",
                "street": "Boulevard de l'Avenir",
                "street_number": "58B",
                "zipcode": "18000",
                "region": "Centre-Val de Loire",
                "state": "Cher",
                "latlng": "47.0795544,2.3815411"
            }
        },
        {
            "name": "Le Tacot Villages",
            "slug": "le-tacot-ii",
            "slogan": "",
            "cover": "jytyky7rpjul0boaxyjw",
            "tags": "Cuisine française, Burger",
            "starttime": "12:00",
            "endtime": "14:00",
            "location": {
                "city": "Bourges",
                "country": "France",
                "street": "Rue de Séraucourt",
                "street_number": "3",
                "zipcode": "18000",
                "region": "Centre-Val de Loire",
                "state": "Cher",
                "latlng": "47.0787758,2.3991706"
            }
        },
        {
            "name": "DELIZIOSA PIZZA",
            "slug": "deliziosa-pizza",
            "slogan": "",
            "cover": "p21g03ittvoxrxobtofg",
            "tags": "",
            "starttime": "18:00",
            "endtime": "21:30",
            "location": {
                "city": "Olivet",
                "country": "France",
                "street": "Rue de l'Anguille",
                "street_number": "492-616",
                "zipcode": "45160",
                "region": "Centre-Val de Loire",
                "state": "Loiret",
                "latlng": "47.8627967,1.8743133"
            }
        },
        {
            "name": "La petite pizzeria",
            "slug": "la-petite-pizzeria",
            "slogan": "",
            "cover": "r2dt2a32bxbyy68sjca6",
            "tags": "Pizza, Italien",
            "starttime": "18:00",
            "endtime": "22:00",
            "location": {
                "city": "Tassin-la-Demi-Lune",
                "country": "France",
                "street": "Avenue Victor Hugo",
                "street_number": "14",
                "zipcode": "69160",
                "region": "Auvergne-Rhône-Alpes",
                "state": "Rhône",
                "latlng": "45.7687182,4.786445"
            },
            "facebook": "lapetitepizzeriaofficiel",
            "phone": "06 28 27 80 42",
            "mail": "contact@lapetitepizzeria.fr",
            "verified": true
        },
        {
            "name": "ROUTE 69",
            "slug": "route-69",
            "slogan": "La cuisine voyage pour vous",
            "cover": "oqo7nbnft71t3ntau2fr",
            "tags": "Cuisine française, Burger, Salades",
            "starttime": "18:30",
            "endtime": "22:00",
            "location": {
                "city": "Fontaines-Saint-Martin",
                "country": "France",
                "street": "Place du 8 Mai 1945",
                "street_number": "15",
                "zipcode": "69270",
                "region": "Auvergne-Rhône-Alpes",
                "state": "Rhône",
                "latlng": "45.8448837,4.8543534"
            },
            "facebook": "Route69.restomobile",
            "phone": "06 51 56 18 12",
            "mail": "boissinfrance@gmail.com",
            "verified": true
        },
        {
            "name": "The rolling cantine",
            "slug": "the-rolling-cantine",
            "slogan": "The best burger downtown",
            "cover": "kdfbezwbgpdly4mw1omv",
            "tags": "Burger",
            "starttime": "10:00",
            "endtime": "13:30",
            "location": {
                "city": "Lyon",
                "country": "France",
                "street": "Quai Victor Augagneur",
                "street_number": "14",
                "zipcode": "69003",
                "region": "Auvergne-Rhône-Alpes",
                "state": "Rhône",
                "latlng": "45.7600009,4.8410206"
            },
            "facebook": "The-rolling-cantine-622887494403330",
            "phone": "06 22 59 39 39",
            "mail": "contact@therollingcantine.com",
            "website": "http://www.therollingcantine.com",
            "verified": true
        },
        {
            "name": "SEN le food truck du Sport",
            "slug": "sen-le-food-truck-du-sport",
            "slogan": "La Passion du Sport nous rassemble !!",
            "cover": "fwtqnnqpw6l5mrgljept",
            "tags": "Burger, Sandwiches-Salades, Américain",
            "starttime": "10:30",
            "endtime": "14:30",
            "location": {
                "city": "Givors",
                "country": "France",
                "street": "Rue Joseph Fauré",
                "street_number": "17",
                "zipcode": "69700",
                "region": "Auvergne-Rhône-Alpes",
                "state": "Rhône",
                "latlng": "45.58329,4.772829"
            }
        },
        {
            "name": "Queen Pizza",
            "slug": "queen-pizza",
            "slogan": "Faites un break au Queen Pizza.",
            "cover": "llhodzvpwxuyk4czx2rl",
            "tags": "Pizza",
            "starttime": "17:00",
            "endtime": "21:00",
            "location": {
                "city": "Décines-Charpieu",
                "country": "France",
                "street": "Avenue Jean Jaurès",
                "street_number": "397",
                "zipcode": "69150",
                "region": "Auvergne-Rhône-Alpes",
                "state": "Rhône",
                "latlng": "45.7718618,4.9795536"
            },
            "facebook": "Queen-pizza-décines-937284129688982",
            "phone": "06 10 97 21 76",
            "verified": true
        },
        {
            "name": "itinévin",
            "slug": "itinevin",
            "slogan": "Votre caviste de proximité",
            "cover": "hdchnehwfffmmzp2exuw",
            "tags": "Vin",
            "starttime": "7:30",
            "endtime": "12:30",
            "location": {
                "city": "Nogent-le-Rotrou",
                "country": "France",
                "street": "Place Saint Pol",
                "street_number": "33",
                "zipcode": "28400",
                "region": "Centre-Val de Loire",
                "state": "Eure-et-Loir",
                "latlng": "48.321971,0.821404"
            }
        },
        {
            "name": "Le truck à part",
            "slug": "le-truck-a-part",
            "slogan": "Le truck à m'Angers, facile à m'Angers !",
            "cover": "h4uxbfmi5ws1bhwyzgpo",
            "tags": "Cuisine française",
            "starttime": "10:00",
            "endtime": "20:00",
            "location": {
                "city": "Précigné",
                "country": "France",
                "street": "Le Clos des Fuzelleries",
                "street_number": "2",
                "zipcode": "72300",
                "region": "Pays de la Loire",
                "state": "Sarthe",
                "latlng": "47.7632836,-0.3299687"
            }
        },
        {
            "name": "Temari Sushi",
            "slug": "temari-sushi",
            "slogan": "Spécialités traditionnelles japonaises",
            "cover": "tppsvodefizhqwhlvcks",
            "tags": "Asiatique, Japonais, Café",
            "starttime": "16:30",
            "endtime": "20:00",
            "location": {
                "city": "Saint-Fargeau-Ponthierry",
                "country": "France",
                "street": "Rond-Point du Grand Chemin",
                "street_number": "",
                "zipcode": "77310",
                "region": "Île-de-France",
                "state": "Seine-et-Marne",
                "latlng": "48.5359398,2.5272745"
            }
        },
        {
            "name": "la Petite Crêperie Ambulante",
            "slug": "la-petite-creperie-ambulante",
            "slogan": "",
            "cover": "y4wr6mjievfypusnjk09",
            "tags": "Crêpes-Galettes",
            "starttime": "7:30",
            "endtime": "13:00",
            "location": {
                "latlng": "46.1594007,-1.1486191"
            }
        },
        {
            "name": "L'ApéRochelais",
            "slug": "l-aperochelais",
            "slogan": "",
            "cover": "vrziqjxjno8p85leyokw",
            "tags": "Cuisine française",
            "starttime": "10:30",
            "endtime": "14:00",
            "location": {
                "city": "La Rochelle",
                "country": "France",
                "street": "Rue de la Marché",
                "street_number": "15",
                "zipcode": "17000",
                "region": "Nouvelle-Aquitaine",
                "state": "Charente-Maritime",
                "latlng": "46.157405,-1.1860949"
            }
        },
        {
            "name": "Wassa Wassa Délices",
            "slug": "wassa-wassa-delices",
            "slogan": "Wassa Wassa Délices, Saveurs africaines nomade",
            "cover": "hl4zoxksoap9mksk8imv",
            "tags": "Africain",
            "starttime": "17:30",
            "endtime": "21:00",
            "location": {
                "city": "Brétigny-sur-Orge",
                "country": "France",
                "street": "Rue d'Estienne d'Orves",
                "street_number": "19",
                "zipcode": "91220",
                "region": "Île-de-France",
                "state": "Essonne",
                "latlng": "48.6070714,2.3035536"
            }
        },
        {
            "name": "Snack & Pasta",
            "slug": "snack-pasta",
            "slogan": "Le food truck près de chez vous",
            "cover": "klfcvsiro32rmw1oaowe",
            "tags": "Burger, Italien, Sandwiches-Salades",
            "starttime": "18:00",
            "endtime": "21:30",
            "location": {
                "city": "Lesparre-Médoc",
                "country": "France",
                "street": "Route de Bordeaux",
                "street_number": "21",
                "zipcode": "33340",
                "region": "Nouvelle-Aquitaine",
                "state": "Gironde",
                "latlng": "45.299986,-0.9318863"
            }
        },
        {
            "name": "La frit'alienne",
            "slug": "la-frit-alienne",
            "slogan": "DE BONNES FRITES FRAICHES \"maison\"",
            "cover": "io7qmqjcyqo1muwap7wl",
            "tags": "Burger, Sandwiches-Salades, Cuisine du Monde",
            "starttime": "18:30",
            "endtime": "21:00",
            "location": {
                "city": "Bonnelles",
                "country": "France",
                "street": "Rue de la Division Leclerc",
                "street_number": "42",
                "zipcode": "78830",
                "region": "Île-de-France",
                "state": "Yvelines",
                "latlng": "48.6167441,2.028915"
            }
        },
        {
            "name": "Gagao",
            "slug": "gagao",
            "slogan": "",
            "cover": "ocwf2h9hpvot2qsxmrln",
            "tags": "Sucré, Café, Bar à jus",
            "starttime": "10:00",
            "endtime": "18:00",
            "location": {
                "city": "Bordeaux",
                "country": "France",
                "street": "Rue de Tauzia",
                "street_number": "95",
                "zipcode": "33800",
                "region": "Nouvelle-Aquitaine",
                "state": "Gironde",
                "latlng": "44.8273018,-0.5565886"
            }
        },
        {
            "name": "franch'country truck",
            "slug": "franch-country-truck",
            "slogan": "food truck jurassien ....",
            "cover": "dnyvqrtrg9fgell2kf5u",
            "tags": "Cuisine française, Burger, Sandwiches-Salades",
            "starttime": "12:00",
            "endtime": "13:45",
            "location": {
                "city": "Dole",
                "country": "France",
                "street": "Avenue de Lahr",
                "street_number": "29",
                "zipcode": "39100",
                "region": "Bourgogne Franche-Comté",
                "state": "Jura",
                "latlng": "47.0908729,5.4972091"
            }
        },
        {
            "name": "LE CAMION GOURMET",
            "slug": "le-camion-gourmet",
            "slogan": "",
            "cover": "acyfnxjwibfjqrg8apkt",
            "tags": "Burger, Sandwiches-Salades, Américain",
            "starttime": "12:00",
            "endtime": "14:30",
            "location": {
                "city": "Pont-Sainte-Marie",
                "country": "France",
                "street": "Rue Marc Verdier",
                "street_number": "21",
                "zipcode": "10150",
                "region": "Grand Est",
                "state": "Aube",
                "latlng": "48.3272504,4.1066324"
            }
        },
        {
            "name": "WEST CORNER",
            "slug": "west-corner",
            "slogan": "Créateur de Burger",
            "cover": "gabeshquvmksuza7zgzf",
            "tags": "Burger, Américain",
            "starttime": "11:30",
            "endtime": "13:30",
            "location": {
                "city": "Pessac",
                "country": "France",
                "street": "Avenue Léonard de Vinci",
                "street_number": "5",
                "zipcode": "33600",
                "region": "Nouvelle-Aquitaine",
                "state": "Gironde",
                "latlng": "44.7830198,-0.6543092"
            }
        },
        {
            "name": "réstream's bagel",
            "slug": "restream-s-bagel",
            "slogan": "Bagels & Bagers",
            "cover": "isuw6qikauj8qjsvxsyw",
            "tags": "Bagel, Burger, Américain",
            "starttime": "18:30",
            "endtime": "21:30",
            "location": {
                "city": "Le Bois-Plage-en-Ré",
                "country": "France",
                "street": "Rue Raise Maritaise",
                "street_number": "111",
                "zipcode": "17580",
                "region": "Nouvelle-Aquitaine",
                "state": "Charente-Maritime",
                "latlng": "46.1796157,-1.3877981"
            }
        },
        {
            "name": "Road Toqués",
            "slug": "roadtoques",
            "slogan": "la bistronomie nous rapproche",
            "cover": "o4ipou8nnabycbdmm9u9",
            "tags": "Cuisine française",
            "starttime": "8:00",
            "endtime": "14:30",
            "location": {
                "city": "Verrières-le-Buisson",
                "country": "France",
                "street": "Place Charles de Gaulle",
                "street_number": "3",
                "zipcode": "91370",
                "region": "Île-de-France",
                "state": "Essonne",
                "latlng": "48.7465147,2.266726"
            }
        },
        {
            "name": "Le Chouan'Dwich",
            "slug": "le-chouan-dwich",
            "slogan": "Facile à prononcer, difficile d'y résister!",
            "cover": "ioqofec0nabwukycbmhy",
            "tags": "Cuisine française, Burger, Sandwiches-Salades",
            "starttime": "19:00",
            "endtime": "21:00",
            "location": {
                "latlng": "46.6678542,-1.4399033"
            }
        },
        {
            "name": "Flammatruck",
            "slug": "flammatruck",
            "slogan": "enFLAMMez-vous",
            "cover": "ottcz5lfrmhaaie5qmrv",
            "tags": "Flammekueche, Terroir",
            "starttime": "10:00",
            "endtime": "14:00",
            "location": {
                "latlng": "48.8032479,2.2642794"
            }
        },
        {
            "name": "AUX SAVEURS DE L'ITALIE",
            "slug": "aux-saveurs-de-l-italie",
            "slogan": "On ne sert que ce que l'on aimerait manger soi même !",
            "cover": "uiwmrung6jxppwzgierr",
            "tags": "Pizza",
            "starttime": "18:00",
            "endtime": "22:00",
            "location": {
                "latlng": "48.8172801,2.282046"
            }
        },
        {
            "name": "Toccata Night",
            "slug": "pizza-toccata",
            "slogan": "Le seul et unique camion pizza à Versailles",
            "cover": "ciu4bpdvvwrra1liomek",
            "tags": "Pizza",
            "starttime": "9:45",
            "endtime": "13:15",
            "location": {
                "latlng": "48.817215,2.127322"
            }
        },
        {
            "name": "\"U.M.M.M...!\"",
            "slug": "u-m-m-m",
            "slogan": "Y'a pas d'heure pour un bon breakfast",
            "cover": "liioezt26u5k75rsvek8",
            "tags": "Sucré, Cuisine du Monde, Café",
            "starttime": "10:00",
            "endtime": "23:00",
            "location": {
                "latlng": "48.8204381,2.3378"
            }
        },
        {
            "name": "Café en bullant",
            "slug": "cafe-en-bullant",
            "slogan": "large gamme de cafés de qualité et gourmandises",
            "cover": "vy4rvqjp8nvvolnwldwl",
            "tags": "Sucré, Café, Bar à jus",
            "starttime": "7:30",
            "endtime": "14:30",
            "location": {
                "city": "Vanves",
                "country": "France",
                "street": "Rue Jean Bleuzen",
                "street_number": "74",
                "zipcode": "92170",
                "region": "Île-de-France",
                "state": "Hauts-de-Seine",
                "latlng": "48.8229745,2.2967309"
            }
        },
        {
            "name": "TOO COOK",
            "slug": "too-cook",
            "slogan": "Le monde du bout des doigts",
            "cover": "qu1ompkau1cvtnho3rey",
            "tags": "Cuisine française, Cuisine du Monde",
            "starttime": "8:00",
            "endtime": "13:15",
            "location": {
                "city": "Lans-en-Vercors",
                "country": "France",
                "street": "Le Village",
                "street_number": "",
                "zipcode": "38250",
                "region": "Auvergne-Rhône-Alpes",
                "state": "Isère",
                "latlng": "45.1279732,5.5882234"
            }
        },
        {
            "name": "Cheesers",
            "slug": "cheesers",
            "slogan": "Le Grilled Cheese à la Française...",
            "cover": "hmcdlqondpg2acs3quwq",
            "tags": "Cuisine française, Sandwiches-Salades, Américain",
            "starttime": "12:30",
            "endtime": "15:30",
            "location": {
                "city": "Paris",
                "country": "France",
                "street": "Avenue de France",
                "street_number": "118-122",
                "zipcode": "75013",
                "region": "Île-de-France",
                "state": "Paris",
                "latlng": "48.8310941,2.3763194"
            }
        },
        {
            "name": "Tooq Tooq",
            "slug": "tooq-tooq",
            "slogan": "le camion des nouilles thaï",
            "cover": "pde2mnqfynfmniphzpxd",
            "tags": "Asiatique, Cuisine du Monde",
            "starttime": "12:00",
            "endtime": "15:00",
            "location": {
                "city": "Paris",
                "country": "France",
                "street": "Avenue de France",
                "street_number": "129",
                "zipcode": "75013",
                "region": "Île-de-France",
                "state": "Paris",
                "latlng": "48.8311359,2.3759594"
            }
        },
        {
            "name": "Larry's",
            "slug": "larry-s",
            "slogan": "",
            "cover": "yapsytqpypodzmzemgvm",
            "tags": "Américain",
            "starttime": "12:00",
            "endtime": "22:00",
            "location": {
                "city": "Paris",
                "country": "France",
                "street": "Avenue de France",
                "street_number": "129",
                "zipcode": "75013",
                "region": "Île-de-France",
                "state": "Paris",
                "latlng": "48.831354,2.3760867"
            }
        },
        {
            "name": "Le Camion Qui Fume II",
            "slug": "le-camion-qui-fume-ii",
            "slogan": "1er Food Truck de France",
            "cover": "otgjpl5frwe3g16iysbp",
            "tags": "Burger",
            "starttime": "12:00",
            "endtime": "14:30",
            "location": {
                "city": "Paris",
                "country": "France",
                "street": "Avenue de France",
                "street_number": "130-134",
                "zipcode": "75013",
                "region": "Île-de-France",
                "state": "Paris",
                "latlng": "48.8317387,2.3757141"
            }
        },
        {
            "name": "La Brigade",
            "slug": "la-brigade",
            "slogan": "Homemade in Slices",
            "cover": "xuctp1uww84gtkimbuzu",
            "tags": "Rôtisserie, Américain",
            "starttime": "12:00",
            "endtime": "14:30",
            "location": {
                "city": "Paris",
                "country": "France",
                "street": "Avenue de France",
                "street_number": "128-162",
                "zipcode": "75004",
                "region": "Île-de-France",
                "state": "Paris",
                "latlng": "48.8326912,2.3752415"
            }
        },
        {
            "name": "Ô Churrasco",
            "slug": "o-churrasco",
            "slogan": "Le goût des Antilles",
            "cover": "meurbemvgyoxxtaus9fu",
            "tags": "Rôtisserie, Sandwiches-Salades, Cuisine du Monde",
            "starttime": "8:00",
            "endtime": "13:00",
            "location": {
                "city": "Fort de France",
                "country": "France",
                "street": "Place François Mitterrand",
                "street_number": "1",
                "zipcode": "97200",
                "region": "Occitanie",
                "state": "Haute-Garonne",
                "latlng": "43.6650225,1.5056637"
            }
        },
        {
            "name": "The bbq brother",
            "slug": "the-bbq-brother",
            "slogan": "La qualité est notre métier!",
            "cover": "rupxov2xxns00fltfwlc",
            "tags": "Burger, Américain",
            "starttime": "11:00",
            "endtime": "14:00",
            "location": {
                "city": "Paris",
                "country": "France",
                "street": "Avenue Ledru-Rollin",
                "street_number": "34",
                "zipcode": "75012",
                "region": "Île-de-France",
                "state": "Paris",
                "latlng": "48.8473082,2.370569"
            }
        },
        {
            "name": "Munchies",
            "slug": "munchies",
            "slogan": "Food Truck / Traiteur/ Evénementiel",
            "cover": "viab2feikug5oz721gft",
            "tags": "Cuisine française, Japonais, Méditerranéen",
            "starttime": "11:00",
            "endtime": "15:00",
            "location": {
                "city": "Vincennes",
                "country": "France",
                "street": "Place Pierre Sémard",
                "street_number": "",
                "zipcode": "94300",
                "region": "Île-de-France",
                "state": "Val-de-Marne",
                "latlng": "48.8472806,2.4340441"
            }
        },
        {
            "name": "caravansérail",
            "slug": "caravanserail",
            "slogan": "Bon, rapide et équilibré... Quoi d'autre",
            "cover": "fb5yrgfasbotabzuuygu",
            "tags": "Cuisine Orientale, Africain",
            "starttime": "19:00",
            "endtime": "22:30",
            "location": {
                "latlng": "48.8538008,2.3681814"
            }
        },
        {
            "name": "Sabroso",
            "slug": "sabroso",
            "slogan": "Cocina ambulante",
            "cover": "ychwnerx4zll298bmjlf",
            "tags": "Tex-Mex",
            "starttime": "10:00",
            "endtime": "22:00",
            "location": {
                "latlng": "48.8592763,2.293845"
            }
        },
        {
            "name": "The Rolling Pizza",
            "slug": "the-rolling-pizza",
            "slogan": "",
            "cover": "r68cexthwvjuvxt47ahu",
            "tags": "Pizza",
            "starttime": "10:00",
            "endtime": "22:00",
            "location": {
                "latlng": "48.8592763,2.293845"
            }
        },
        {
            "name": "Win Pizz",
            "slug": "win-pizz",
            "slogan": "la pizza gagnante",
            "cover": "oslfbkwwntobz6y3p4nv",
            "tags": "Pizza",
            "starttime": "10:00",
            "endtime": "22:00",
            "location": {
                "city": "Paris",
                "country": "France",
                "street": "Quai Branly",
                "street_number": "",
                "zipcode": "75007",
                "region": "Île-de-France",
                "state": "Paris",
                "latlng": "48.8592763,2.293845"
            }
        },
        {
            "name": "Bread and Cheese",
            "slug": "bread-and-cheese",
            "slogan": "",
            "cover": "r9xkpdgrhny3nvolvofk",
            "tags": "Sandwiches-Salades, Américain",
            "starttime": "10:00",
            "endtime": "22:00",
            "location": {
                "city": "Paris",
                "country": "France",
                "street": "Quai Branly",
                "street_number": "",
                "zipcode": "75007",
                "region": "Île-de-France",
                "state": "Paris",
                "latlng": "48.8592763,2.293845"
            }
        },
        {
            "name": "Le Trotter",
            "slug": "le-trotter",
            "slogan": "Un wraps, peut être plus gros que l'on ne le pense",
            "cover": "n3rz3qkjvivp5dcufewg",
            "tags": "Cuisine du Monde, Wrap",
            "starttime": "10:00",
            "endtime": "22:00",
            "location": {
                "city": "Paris",
                "country": "France",
                "street": "Quai Branly",
                "street_number": "",
                "zipcode": "75007",
                "region": "Île-de-France",
                "state": "Paris",
                "latlng": "48.8592763,2.293845"
            }
        },
        {
            "name": "Lamamobile Foodtruck",
            "slug": "lamamobile-foodtruck",
            "slogan": "",
            "cover": "hi5bfvnmycxpgaxphtxq",
            "tags": "Cuisine du Monde",
            "starttime": "10:00",
            "endtime": "22:00",
            "location": {
                "city": "Paris",
                "country": "France",
                "street": "Quai Branly",
                "street_number": "",
                "zipcode": "75007",
                "region": "Île-de-France",
                "state": "Paris",
                "latlng": "48.8592763,2.293845"
            }
        },
        {
            "name": "WOK N ROLL",
            "slug": "wok-n-roll",
            "slogan": "Manger bon, Manger sain",
            "cover": "sizbxushodkou6rgxvvz",
            "tags": "Asiatique, Cuisine française, Cuisine du Monde",
            "starttime": "10:00",
            "endtime": "22:00",
            "location": {
                "city": "Paris",
                "country": "France",
                "street": "Quai Branly",
                "street_number": "",
                "zipcode": "75007",
                "region": "Île-de-France",
                "state": "Paris",
                "latlng": "48.8592763,2.293845"
            }
        },
        {
            "name": "vi & vi",
            "slug": "vi-vi",
            "slogan": "Les meilleures choses se partagent...",
            "cover": "qejsijwzv7zt0blzyjto",
            "tags": "Cuisine du Monde",
            "starttime": "10:00",
            "endtime": "22:00",
            "location": {
                "city": "Paris",
                "country": "France",
                "street": "Quai Branly",
                "street_number": "",
                "zipcode": "75007",
                "region": "Île-de-France",
                "state": "Paris",
                "latlng": "48.8592763,2.293845"
            }
        },
        {
            "name": "Moule Walker",
            "slug": "moule-walker",
            "slogan": "Haute Gouture Nomade",
            "cover": "i95r6ianbqlbcdg8grgw",
            "tags": "Cuisine française",
            "starttime": "10:00",
            "endtime": "22:00",
            "location": {
                "city": "Paris",
                "country": "France",
                "street": "Quai Branly",
                "street_number": "",
                "zipcode": "75007",
                "region": "Île-de-France",
                "state": "Paris",
                "latlng": "48.8592763,2.293845"
            }
        },
        {
            "name": "Food Trucks Fest'",
            "slug": "food-truck-s-fest",
            "slogan": "Fête de la Gourmandise !",
            "cover": "gfwnj1k47yubh2fido7v",
            "tags": "Cuisine française, Burger, Cuisine du Monde",
            "starttime": "10:00",
            "endtime": "22:00",
            "location": {
                "city": "Paris",
                "country": "France",
                "street": "Quai Branly",
                "street_number": "37",
                "zipcode": "75007",
                "region": "Île-de-France",
                "state": "Paris",
                "latlng": "48.8608889,2.297894"
            }
        },
        {
            "name": "Cantine california",
            "slug": "cantine-california",
            "slogan": "A little piece of America on a corner near you.",
            "cover": "dak8gctmw9mk5swlcggf",
            "tags": "Burger",
            "starttime": "11:30",
            "endtime": "14:45",
            "location": {
                "city": "Paris",
                "country": "France",
                "street": "Place du Marché Saint-Honoré",
                "street_number": "16",
                "zipcode": "75001",
                "region": "Île-de-France",
                "state": "Paris",
                "latlng": "48.866912,2.3321814"
            }
        },
        {
            "name": "Eat my Truck",
            "slug": "eat-my-truck",
            "slogan": "Nous revisitons le classique américain, avec les produits raffinés et le savoir-faire de la gastronomie française !",
            "cover": "x8laqrcdhdwt5hyzmyxn",
            "tags": "Américain",
            "starttime": "19:00",
            "endtime": "0:00",
            "location": {
                "city": "Paris",
                "country": "France",
                "street": "Rue Moret",
                "street_number": "8",
                "zipcode": "75011",
                "region": "Île-de-France",
                "state": "Paris",
                "latlng": "48.8667795,2.3799041"
            }
        },
        {
            "name": "Le Camion Qui Fume I",
            "slug": "le-camion-qui-fume-i",
            "slogan": "1er Food Truck de France",
            "cover": "hq8nkejl7150afnm3rsr",
            "tags": "Burger",
            "starttime": "12:00",
            "endtime": "16:00",
            "location": {
                "latlng": "48.8703901,2.3429715"
            }
        },
        {
            "name": "les food du volant",
            "slug": "les-food-du-volant-1",
            "slogan": "cuisine de bistrot",
            "cover": "epqmnotatvutorxis28v",
            "tags": "Cuisine française",
            "starttime": "11:30",
            "endtime": "14:30",
            "location": {
                "latlng": "43.630325,1.49211"
            }
        },
        {
            "name": "Le Camion Qui Fume III",
            "slug": "le-camion-qui-fume-iii",
            "slogan": "1er Food Truck de France",
            "cover": "sdls212fkrfbgf1vsxk6",
            "tags": "Burger",
            "starttime": "11:00",
            "endtime": "14:00",
            "location": {
                "latlng": "48.8749353,2.2789945"
            }
        },
        {
            "name": "Karr Lichou",
            "slug": "karr-lichou",
            "slogan": "VOTRE FOODTRUCK DE CRÊPES À PARIS",
            "cover": "olhljohovdk3xp5g6gn2",
            "tags": "Cuisine française, Crêpes-Galettes, Cuisine du Monde",
            "starttime": "12:00",
            "endtime": "18:00",
            "location": {
                "latlng": "48.8802908,2.2472379"
            }
        },
        {
            "name": "Nolita Street",
            "slug": "nolita-street",
            "slogan": "We are beautyfood!",
            "cover": "x5wlf4ga4jx6wtuk5doy",
            "tags": "Italien",
            "starttime": "19:00",
            "endtime": "22:30",
            "location": {
                "latlng": "48.8921107,2.2109857"
            }
        },
        {
            "name": "La Cantina de Gloria",
            "slug": "la-cantina-de-gloria",
            "slogan": "Perrito caliente BIO Latino",
            "cover": "vf0ftfuz0vrgfl1yvtqs",
            "tags": "Cuisine du Monde, Tex-Mex, Triporteur",
            "starttime": "18:00",
            "endtime": "21:30",
            "location": {
                "latlng": "48.8905882,2.3917407"
            }
        },
        {
            "name": "le burger de choc",
            "slug": "le-burger-de-choc",
            "slogan": "",
            "cover": "vji2noqxiymtycnyabpb",
            "tags": "Burger, Sandwiches-Salades",
            "starttime": "11:00",
            "endtime": "15:00",
            "location": {
                "latlng": "45.142151,5.718034"
            }
        },
        {
            "name": "le quartier gourmand",
            "slug": "le-quartier-gourmand",
            "slogan": "",
            "cover": "z8eh1chwz4xgvcogh8w8",
            "tags": "Burger, Sandwiches-Salades, Cuisine du Monde",
            "starttime": "18:00",
            "endtime": "22:00",
            "location": {
                "city": "Carrières-sur-Seine",
                "country": "France",
                "street": "Boulevard Carnot",
                "street_number": "64",
                "zipcode": "78420",
                "region": "Île-de-France",
                "state": "Yvelines",
                "latlng": "48.9094946,2.1780072"
            }
        },
        {
            "name": "Grain De Sucre",
            "slug": "grain-de-sucre",
            "slogan": "",
            "cover": "gwnfgfag9dbdrtp7wres",
            "tags": "Sucré",
            "starttime": "8:00",
            "endtime": "14:00",
            "location": {
                "city": "Saint-Génies-de-Malgoirès",
                "country": "France",
                "street": "Chemin de Font Barjarret",
                "street_number": "",
                "zipcode": "30190",
                "region": "Occitanie",
                "state": "Gard",
                "latlng": "43.946459,4.213944"
            }
        },
        {
            "name": "Gourmet trotteur",
            "slug": "gourmet-trotteur",
            "slogan": "Le bon sens a du goût",
            "cover": "rly0xutzrzyqrkbubio3",
            "tags": "Sandwiches-Salades",
            "starttime": "12:00",
            "endtime": "14:30",
            "location": {
                "city": "Toulouse",
                "country": "France",
                "street": "Rue d'Alsace Lorraine",
                "street_number": "2",
                "zipcode": "31000",
                "region": "Occitanie",
                "state": "Haute-Garonne",
                "latlng": "43.6000082,1.4456641"
            }
        },
        {
            "name": "Eat The Road",
            "slug": "eat-the-road",
            "slogan": "Un Food Truck Original ! Des produits frais et de qualité séléctionnés et achetés localement",
            "cover": "hotmcsofurtglg4xjllu",
            "tags": "Burger",
            "starttime": "11:30",
            "endtime": "14:30",
            "location": {
                "city": "Asnières-sur-Seine",
                "country": "France",
                "street": "Place Aristide Briand",
                "street_number": "2",
                "zipcode": "92600",
                "region": "Île-de-France",
                "state": "Hauts-de-Seine",
                "latlng": "48.910696,2.288943"
            }
        },
        {
            "name": "Tartobus",
            "slug": "tartobus",
            "slogan": "Des tartes qui roulent, des soupes qui déménagent",
            "cover": "wadbwx6esjui14yyfqhw",
            "tags": "Cuisine française, Sandwiches-Salades",
            "starttime": "8:00",
            "endtime": "12:15",
            "location": {
                "city": "Valréas",
                "country": "France",
                "street": "Traverse de la Placette",
                "street_number": "2",
                "zipcode": "84600",
                "region": "Provence-Alpes-Côte d'Azur",
                "state": "Vaucluse",
                "latlng": "44.383724,4.989187"
            }
        },
        {
            "name": "Bouche B",
            "slug": "bouche-b",
            "slogan": "Bouche b, des burgers chics pour les fines bouches !",
            "cover": "bqnzqtxflzhxky6sjhoe",
            "tags": "Burger",
            "starttime": "19:00",
            "endtime": "22:00",
            "location": {
                "city": "Toulouse",
                "country": "France",
                "street": "Allée Jules Guesde",
                "street_number": "33",
                "zipcode": "31400",
                "region": "Occitanie",
                "state": "Haute-Garonne",
                "latlng": "43.5941531,1.4489675"
            }
        },
        {
            "name": "lefoodtruck",
            "slug": "lefoodtruck",
            "slogan": "100% MAISON",
            "cover": "dgb4wyu3rlw1ex0eb2p5",
            "tags": "Cuisine française, Burger, Café",
            "starttime": "11:00",
            "endtime": "14:30",
            "location": {
                "city": "Annecy-le-Vieux",
                "country": "France",
                "street": "Rue de la Minoterie",
                "street_number": "5",
                "zipcode": "74940",
                "region": "Auvergne-Rhône-Alpes",
                "state": "Haute-Savoie",
                "latlng": "45.9297682,6.1225072"
            }
        },
        {
            "name": "MAKI&CO",
            "slug": "maki-co",
            "slogan": "Japan Food Truck",
            "cover": "vqfdmyy9rlkr21t31j6o",
            "tags": "Asiatique, Japonais, Cuisine du Monde",
            "starttime": "18:00",
            "endtime": "21:00",
            "location": {
                "city": "Crolles",
                "country": "France",
                "street": "Avenue Joliot Curie",
                "street_number": "192",
                "zipcode": "38920",
                "region": "Auvergne-Rhône-Alpes",
                "state": "Isère",
                "latlng": "45.2835124,5.8817619"
            }
        },
        {
            "name": "food truck indien",
            "slug": "food-truck-indien",
            "slogan": "concept  cheez naan & frites fraiches",
            "cover": "qnc4w98sngvkaamxmncp",
            "tags": "Sandwiches-Salades, Cuisine du Monde",
            "starttime": "12:00",
            "endtime": "22:00",
            "location": {
                "city": "Sevran",
                "country": "France",
                "street": "Avenue Raoul Dautry",
                "street_number": "21",
                "zipcode": "93270",
                "region": "Île-de-France",
                "state": "Seine-Saint-Denis",
                "latlng": "48.9481519,2.5249282"
            }
        },
        {
            "name": "Made in fresh",
            "slug": "made-in-fresh",
            "slogan": "",
            "cover": "bdzb6bzuwxge7v7q3jgn",
            "tags": "Pâtes, Burger",
            "starttime": "11:30",
            "endtime": "14:00",
            "location": {
                "city": "Rezé",
                "country": "France",
                "street": "Route des Sorinières",
                "street_number": "129",
                "zipcode": "44400",
                "region": "Pays de la Loire",
                "state": "Loire-Atlantique",
                "latlng": "47.156644,-1.537828"
            }
        },
        {
            "name": "Délicrep' Truck",
            "slug": "delicrep-truck",
            "slogan": "Tous les goûts sont dans... mon Truck!",
            "cover": "fondzc7ntm4knwuyu2ut",
            "tags": "Cuisine française, Sucré, Crêpes-Galettes",
            "starttime": "11:00",
            "endtime": "19:00",
            "location": {
                "latlng": "48.9989854,2.188183"
            }
        },
        {
            "name": "SushiJu",
            "slug": "sushiju",
            "slogan": "« Le Sushi c’est d’abord une passion »",
            "cover": "ec9ex7njn2wolokwjotk",
            "tags": "Japonais",
            "starttime": "18:30",
            "endtime": "21:00",
            "location": {
                "latlng": "44.1351605,4.8101084"
            }
        },
        {
            "name": "Hervé Food Truck Gourmand",
            "slug": "herve-food-truck-gourmand",
            "slogan": "Hervé Food Truck Gourmand",
            "cover": "ggstemvqq6pa84gzhczp",
            "tags": "Cuisine française, Rôtisserie",
            "starttime": "10:30",
            "endtime": "20:00",
            "location": {
                "latlng": "46.1930665,6.2313237"
            }
        },
        {
            "name": "le globe trotteur cuisine",
            "slug": "le-globe-trotteur-cuisine",
            "slogan": "la fraicheur des produits et le goût en bouche.",
            "cover": "zczepvwnlussmyphstfe",
            "tags": "Burger, Sandwiches-Salades, Cuisine du Monde",
            "starttime": "11:00",
            "endtime": "13:45",
            "location": {
                "latlng": "49.0135521,2.2515185"
            }
        },
        {
            "name": "miva poulets",
            "slug": "miva-poulets",
            "slogan": "",
            "cover": "aqmd3cwyt2xhzyexjc13",
            "tags": "Rôtisserie",
            "starttime": "8:00",
            "endtime": "13:00",
            "location": {
                "city": "Saint-Christophe-du-Ligneron",
                "country": "France",
                "street": "Rue de l'Ermitage",
                "street_number": "13",
                "zipcode": "85670",
                "region": "Pays de la Loire",
                "state": "Vendée",
                "latlng": "46.8254471,-1.7613987"
            }
        },
        {
            "name": "Les garçons ...foodtruck",
            "slug": "les-garcons-foodtruck",
            "slogan": "mangez bien...mangez bien être !",
            "cover": "ktwwvcwi42asl9naqabn",
            "tags": "Burger, Sandwiches-Salades, Méditerranéen",
            "starttime": "11:00",
            "endtime": "14:30",
            "location": {
                "city": "Orange",
                "country": "France",
                "street": "Avenue de l'Europe",
                "street_number": "86",
                "zipcode": "84100",
                "region": "Provence-Alpes-Côte d'Azur",
                "state": "Vaucluse",
                "latlng": "44.1212723,4.8403501"
            }
        },
        {
            "name": "Agence Cooking",
            "slug": "agence-cooking",
            "slogan": "",
            "cover": "ia8t1ohvzwojpxhzgvml",
            "tags": "Asiatique, Cuisine française, Cuisine du Monde",
            "starttime": "7:30",
            "endtime": "12:30",
            "location": {
                "city": "Baziège",
                "country": "France",
                "street": "Grand Rue",
                "street_number": "49-55",
                "zipcode": "31450",
                "region": "Occitanie",
                "state": "Haute-Garonne",
                "latlng": "43.4550206,1.6143492"
            }
        },
        {
            "name": "Chick'n kreyol",
            "slug": "chick-n-kreyol",
            "slogan": "Pani pwoblèm",
            "cover": "kdsau8cm2jkrafi2ybmb",
            "tags": "Cuisine du Monde",
            "starttime": "18:00",
            "endtime": "22:00",
            "location": {
                "city": "Vauréal",
                "country": "France",
                "street": "Boulevard de l'Oise",
                "street_number": "100-104",
                "zipcode": "95490",
                "region": "Île-de-France",
                "state": "Val-d'Oise",
                "latlng": "49.030652,2.0219014"
            }
        },
        {
            "name": "La France Qui Roule",
            "slug": "la-france-qui-roule",
            "slogan": "Produits frais et locaux en format populaire (burger)",
            "cover": "fypah5okgohernze7ybf",
            "tags": "Cuisine française, Burger",
            "starttime": "11:30",
            "endtime": "14:00",
            "location": {
                "city": "Douvaine",
                "country": "France",
                "street": "Avenue de Thonon",
                "street_number": "5",
                "zipcode": "74140",
                "region": "Auvergne-Rhône-Alpes",
                "state": "Haute-Savoie",
                "latlng": "46.3074992,6.3076527"
            }
        },
        {
            "name": "Haiti Food Truck",
            "slug": "haiti-food-truck",
            "slogan": "Sé la bagay la bon!",
            "cover": "o7eg44yb25pdh8cvxi1w",
            "tags": "Cuisine du Monde",
            "starttime": "19:00",
            "endtime": "23:00",
            "location": {
                "city": "Puiseux-Pontoise",
                "country": "France",
                "street": "Rue Neuve",
                "street_number": "1",
                "zipcode": "95650",
                "region": "Île-de-France",
                "state": "Val-d'Oise",
                "latlng": "49.0556955,2.0188376"
            }
        },
        {
            "name": "Le bus Rouge",
            "slug": "le-bus-rouge",
            "slogan": "Cuisine Gourmande de Saison dans un Bus Anglais",
            "cover": "rhmc8pr5iydtnaljnr4w",
            "tags": "Cuisine française, Sandwiches-Salades, Cuisine du Monde",
            "starttime": "11:30",
            "endtime": "19:00",
            "location": {
                "city": "Puiseux-Pontoise",
                "country": "France",
                "street": "Chemin de Courcelles",
                "street_number": "",
                "zipcode": "95650",
                "region": "Île-de-France",
                "state": "Val-d'Oise",
                "latlng": "49.0619874,2.0016374"
            }
        },
        {
            "name": "Barbeuk Truck",
            "slug": "barbeuk-truck",
            "slogan": "Food Truck Montpellier - Poulet braisé, brochette, burger et frite maison",
            "cover": "cobeexhkdy1octqqczci",
            "tags": "Burger, Rôtisserie, Américain",
            "starttime": "19:00",
            "endtime": "5:00",
            "location": {
                "city": "Montpellier",
                "country": "France",
                "street": "Avenue du Mas d'Argelliers",
                "street_number": "519-565",
                "zipcode": "34000",
                "region": "Occitanie",
                "state": "Hérault",
                "latlng": "43.5865876,3.8892632"
            }
        },
        {
            "name": "AIR FOOD",
            "slug": "air-food",
            "slogan": "Air Food : Compagnie culinaire",
            "cover": "nz4djwfi0p5l1rf4r7eo",
            "tags": "Burger, Italien, Cuisine du Monde",
            "starttime": "10:00",
            "endtime": "15:00",
            "location": {
                "city": "Villeneuve-lès-Avignon",
                "country": "France",
                "street": "Place Charles David",
                "street_number": "1",
                "zipcode": "30400",
                "region": "Occitanie",
                "state": "Gard",
                "latlng": "43.9649954,4.8017473"
            }
        },
        {
            "name": "WOKERS",
            "slug": "wokers",
            "slogan": "The Wok and Noodles food-truck !",
            "cover": "yrpy1kddeif0bd5c9zcm",
            "tags": "Asiatique, Cuisine française, Cuisine du Monde",
            "starttime": "10:00",
            "endtime": "14:30",
            "location": {
                "city": "Castelnaudary",
                "country": "France",
                "street": "Avenue Monseigneur de Langle",
                "street_number": "108-110",
                "zipcode": "11400",
                "region": "Occitanie",
                "state": "Aude",
                "latlng": "43.3107884,1.970416"
            }
        },
        {
            "name": "PiZzA KiLA 82",
            "slug": "pizza-kila-82",
            "slogan": "PiZzA KiLA : La Qualité Près D'Chez Toi !!!",
            "cover": "h7iwtqhbhgiofkdckrgy",
            "tags": "Kebab, Pizza, Burger",
            "starttime": "11:00",
            "endtime": "23:00",
            "location": {
                "latlng": "43.488755,3.705252"
            }
        },
        {
            "name": "AU VIN DIU",
            "slug": "au-vin-diu",
            "slogan": "Bar à vins, caviste, proposant des planches de charcuteries, fromages, crudités et dégustations des vins",
            "cover": "kziivtvoxsfaoxougi7s",
            "tags": "Cuisine française",
            "starttime": "8:00",
            "endtime": "13:00",
            "location": {
                "latlng": "43.562289,3.952127"
            }
        },
        {
            "name": "Le Cam'Miam",
            "slug": "le-cam-miam",
            "slogan": "Votre resto'mobil au  pied du bureau ou en bas de chez moi...",
            "cover": "v2sq2knp8lmwixw7ogjb",
            "tags": "Cuisine française, Burger, Cuisine du Monde",
            "starttime": "18:30",
            "endtime": "21:30",
            "location": {
                "city": "Althen-des-Paluds",
                "country": "France",
                "street": "Rue de l'Église",
                "street_number": "132",
                "zipcode": "84210",
                "region": "Provence-Alpes-Côte d'Azur",
                "state": "Vaucluse",
                "latlng": "44.004336,4.958824"
            }
        },
        {
            "name": "le camion gourmand",
            "slug": "le-camion-gourmand-1",
            "slogan": "spécialités burgers",
            "cover": "ejtu4kcs2uvxdq6couqf",
            "tags": "Pizza, Burger, Sandwiches-Salades",
            "starttime": "12:00",
            "endtime": "14:00",
            "location": {
                "city": "Pernes-les-Fontaines",
                "country": "France",
                "street": "Avenue Charles de Gaulle",
                "street_number": "777",
                "zipcode": "84210",
                "region": "Provence-Alpes-Côte d'Azur",
                "state": "Vaucluse",
                "latlng": "44.0072733,5.050295"
            }
        },
        {
            "name": "Petit Tonkinois",
            "slug": "petit-tonkinois",
            "slogan": "Le Food Truck vietnamien en Pays d'Aix !",
            "cover": "r6pmtmhjlzzgewstom6d",
            "tags": "Asiatique, Chinois, Cuisine du Monde",
            "starttime": "18:30",
            "endtime": "21:30",
            "location": {
                "city": "Avignon",
                "country": "France",
                "street": "Chemin des Felons",
                "street_number": "800",
                "zipcode": "84140",
                "region": "Provence-Alpes-Côte d'Azur",
                "state": "Vaucluse",
                "latlng": "43.9057115,4.893582"
            }
        },
        {
            "name": "le truck normand",
            "slug": "le-truck-normand",
            "slogan": "Un Truck rien que pour vous",
            "cover": "isrbdrxhjpakdfifnuq1",
            "tags": "Cuisine française, Burger, Sandwiches-Salades",
            "starttime": "11:00",
            "endtime": "14:00",
            "location": {
                "city": "Carsix",
                "country": "France",
                "street": "Rue Gustave Heon",
                "street_number": "44",
                "zipcode": "27300",
                "region": "Normandie",
                "state": "Eure",
                "latlng": "49.135696,0.6711279"
            }
        },
        {
            "name": "Event Burger",
            "slug": "le-kiosque-a-burgers",
            "slogan": "Du bon dans du beau",
            "cover": "wp7vxjdmonklxkaadz5g",
            "tags": "Burger",
            "starttime": "11:30",
            "endtime": "13:30",
            "location": {
                "city": "Compiègne",
                "country": "France",
                "street": "Rue Saint-Corneille",
                "street_number": "26-28",
                "zipcode": "60200",
                "region": "Hauts-de-France",
                "state": "Oise",
                "latlng": "49.4170964,2.8238487"
            }
        },
        {
            "name": "Le Chalet Des Saveurs",
            "slug": "le-chalet-des-saveurs",
            "slogan": "Le spécialiste du Hamburger Frites Maison",
            "cover": "os0suo6vpk83cotl6aub",
            "tags": "Burger",
            "starttime": "19:00",
            "endtime": "21:00",
            "location": {
                "city": "Apt",
                "country": "France",
                "street": "Avenue Victor Hugo",
                "street_number": "446-536",
                "zipcode": "84400",
                "region": "Provence-Alpes-Côte d'Azur",
                "state": "Vaucluse",
                "latlng": "43.8781616,5.3884129"
            }
        },
        {
            "name": "The Mother Road",
            "slug": "the-mother-road",
            "slogan": "",
            "cover": "lle4pniqudcmuiguepsg",
            "tags": "Mexicain, Cuisine du Monde, Américain",
            "starttime": "11:30",
            "endtime": "14:00",
            "location": {
                "city": "Reims",
                "country": "France",
                "street": "Rue de Mars",
                "street_number": "1",
                "zipcode": "51100",
                "region": "Grand Est",
                "state": "Marne",
                "latlng": "49.258329,4.031696"
            }
        },
        {
            "name": "Le Java Bali",
            "slug": "le-java-bali",
            "slogan": "Saveurs d'Indonésie",
            "cover": "mdrgs7jkngjgmjanrxoe",
            "tags": "Asiatique, Cuisine du Monde",
            "starttime": "9:00",
            "endtime": "18:00",
            "location": {
                "city": "Rouen",
                "country": "France",
                "street": "Place Saint-Marc",
                "street_number": "22",
                "zipcode": "76000",
                "region": "Normandie",
                "state": "Seine-Maritime",
                "latlng": "49.4383087,1.1015937"
            }
        },
        {
            "name": "La popote Créole",
            "slug": "la-popote-creole",
            "slogan": "La popote créole le food truck que l'ont raffoles",
            "cover": "g8o8eraoguu7vbn4efpw",
            "tags": "Sucré, Sandwiches-Salades, Cuisine du Monde",
            "starttime": "11:00",
            "endtime": "14:00",
            "location": {
                "city": "Pontonx-sur-l'Adour",
                "country": "France",
                "street": "Rue de Buglose",
                "street_number": "630",
                "zipcode": "40465",
                "region": "Nouvelle-Aquitaine",
                "state": "Landes",
                "latlng": "43.7888949,-0.934492"
            }
        },
        {
            "name": "Un Truck de Ouf",
            "slug": "un-truck-de-ouf",
            "slogan": "Un Truck de Of vous propose exclusivement des produits frais et fait camion.",
            "cover": "ydcawouuhz4qk8n625ng",
            "tags": "Burger",
            "starttime": "18:30",
            "endtime": "21:30",
            "location": {
                "city": "Grans",
                "country": "France",
                "street": "Rue Vieille ville",
                "street_number": "3-15",
                "zipcode": "13450",
                "region": "Provence-Alpes-Côte d'Azur",
                "state": "Bouches-du-Rhône",
                "latlng": "43.607073,5.063777"
            }
        },
        {
            "name": "Le Dauphin",
            "slug": "le-dauphin",
            "slogan": "",
            "cover": "ehvrzikmbau510965ofn",
            "tags": "Kebab, Burger, Sandwiches-Salades",
            "starttime": "10:00",
            "endtime": "15:00",
            "location": {
                "latlng": "49.3499573,0.5413127"
            }
        },
        {
            "name": "Pizza Flo",
            "slug": "pizza-flo",
            "slogan": "",
            "cover": "l0b4xklzrqnfuerxuyyr",
            "tags": "Pizza, Italien",
            "starttime": "12:00",
            "endtime": "14:00",
            "location": {
                "latlng": "49.504504,3.451598"
            }
        },
        {
            "name": "Un camion dans la ville",
            "slug": "un-camion-dans-la-ville",
            "slogan": "",
            "cover": "vz8gx52eqwsb8iamjl3z",
            "tags": "Bagel, Burger, Sandwiches-Salades",
            "starttime": "11:00",
            "endtime": "17:00",
            "location": {
                "latlng": "49.543453,0.95813"
            }
        },
        {
            "name": "MAD'IN TRUCK",
            "slug": "mad-in-truck",
            "slogan": "",
            "cover": "ksduixvw6zrwxk7q4o43",
            "tags": "Burger",
            "starttime": "19:00",
            "endtime": "21:30",
            "location": {
                "latlng": "43.5614909,5.431363"
            }
        },
        {
            "name": "Mister Thot Burger",
            "slug": "mister-thot-burger",
            "slogan": "Des produits frais et maison, c'est l'engagement Mister Thot !",
            "cover": "dcbaq90d8wxnqocsvegw",
            "tags": "Burger, Américain",
            "starttime": "19:00",
            "endtime": "20:30",
            "location": {
                "latlng": "48.1116342,6.5749452"
            }
        },
        {
            "name": "Au sain’dwich",
            "slug": "au-sain-dwich",
            "slogan": "Le Plaisir de l’Equilibre",
            "cover": "ocppr2exckm9jweyzd0y",
            "tags": "Burger, Sandwiches-Salades, Café",
            "starttime": "11:30",
            "endtime": "14:30",
            "location": {
                "city": "Aix-en-Provence",
                "country": "France",
                "street": "Rue Guillaume Du Vair Pole",
                "street_number": "540",
                "zipcode": "13290",
                "region": "Provence-Alpes-Côte d'Azur",
                "state": "Bouches-du-Rhône",
                "latlng": "43.5079235,5.4018473"
            }
        },
        {
            "name": "Street Café",
            "slug": "street-cafe",
            "slogan": "L'instant New Yorkais !",
            "cover": "lbmn8fhgkgcjh4rnrz2u",
            "tags": "Bagel, Américain, Café",
            "starttime": "19:00",
            "endtime": "21:00",
            "location": {
                "city": "Thuir",
                "country": "France",
                "street": "Route de Perpignan",
                "street_number": "1",
                "zipcode": "66300",
                "region": "Occitanie",
                "state": "Pyrénées-Orientales",
                "latlng": "42.6418735,2.7675843"
            }
        },
        {
            "name": "OJAI - food",
            "slug": "ojai-food-1",
            "slogan": "",
            "cover": "oqn3h4mat5sj6o11wjhy",
            "tags": "Burger",
            "starttime": "10:00",
            "endtime": "20:00",
            "location": {
                "city": "Marseille",
                "country": "France",
                "street": "Avenue de Saint Menet",
                "street_number": "10",
                "zipcode": "13011",
                "region": "Provence-Alpes-Côte d'Azur",
                "state": "Bouches-du-Rhône",
                "latlng": "43.2898736,5.4945191"
            }
        },
        {
            "name": "La Mâove",
            "slug": "la-maove",
            "slogan": "",
            "cover": "mrewcxa2y9eatkkl83tw",
            "tags": "Sucré, Bar à jus",
            "starttime": "10:00",
            "endtime": "22:00",
            "location": {
                "city": "Saint-Aubin-sur-Mer",
                "country": "France",
                "street": "D237",
                "street_number": "",
                "zipcode": "76740",
                "region": "Normandie",
                "state": "Seine-Maritime",
                "latlng": "49.893506,0.870125"
            }
        },
        {
            "name": "On Mange Thaï",
            "slug": "on-mange-thai",
            "slogan": "",
            "cover": "mkngvn19bxy4bbjesann",
            "tags": "Asiatique",
            "starttime": "9:00",
            "endtime": "13:00",
            "location": {
                "city": "Aubagne",
                "country": "France",
                "street": "Cours Voltaire",
                "street_number": "6",
                "zipcode": "13400",
                "region": "Provence-Alpes-Côte d'Azur",
                "state": "Bouches-du-Rhône",
                "latlng": "43.2945779,5.5686577"
            }
        },
        {
            "name": "Star Truck",
            "slug": "star-truck",
            "slogan": "Best burgers for real people",
            "cover": "m34klbm1zy8cygpekbh7",
            "tags": "Burger, Américain",
            "starttime": "12:00",
            "endtime": "15:00",
            "location": {
                "city": "Bidart",
                "country": "France",
                "street": "Avenue d'Espagne",
                "street_number": "973",
                "zipcode": "64210",
                "region": "Nouvelle-Aquitaine",
                "state": "Pyrénées-Atlantiques",
                "latlng": "43.4262305,-1.6038028"
            }
        },
        {
            "name": "BUZZ FOOD TRUCK",
            "slug": "buzz-food-truck",
            "slogan": "LE TRUCK QUI CHANGE",
            "cover": "o8ywbclpauqjzdz7xnbt",
            "tags": "Cuisine française, Burger, Américain",
            "starttime": "11:30",
            "endtime": "22:00",
            "location": {
                "city": "Metz",
                "country": "France",
                "street": "En Fournirue",
                "street_number": "1-5",
                "zipcode": "57000",
                "region": "Grand Est",
                "state": "Moselle",
                "latlng": "49.1193074,6.1757236"
            }
        },
        {
            "name": "BUZZ FOOD TRUCK - FISH AND CHIPS",
            "slug": "buzz-food-truck-fish-and-chips",
            "slogan": "LE TRUCK QUI CHANGE...",
            "cover": "giwu4ugrwjoq9jrrrcbf",
            "tags": "Burger, Cuisine du Monde, Américain",
            "starttime": "11:30",
            "endtime": "22:00",
            "location": {
                "city": "Metz",
                "country": "France",
                "street": "En Fournirue",
                "street_number": "1-5",
                "zipcode": "57000",
                "region": "Grand Est",
                "state": "Moselle",
                "latlng": "49.1193074,6.1757236"
            }
        },
        {
            "name": "La fourchette qui roule",
            "slug": "la-fourchette-qui-roule",
            "slogan": "1er Food Truck (since 2012/2013) . Le camion restaurant à la française, un repas qui associe simplicité, fraîcheur et équilibre",
            "cover": "cdejntdvil7uwz9talcw",
            "tags": "Cuisine française, Burger, Américain",
            "starttime": "18:00",
            "endtime": "23:00",
            "location": {
                "city": "Toulon",
                "country": "France",
                "street": "Rue Castillon",
                "street_number": "7",
                "zipcode": "83000",
                "region": "Provence-Alpes-Côte d'Azur",
                "state": "Var",
                "latlng": "43.1119029,5.938879"
            }
        },
        {
            "name": "Food Truck Le Rapido",
            "slug": "food-truck-le-rapido",
            "slogan": "Food truck Restauration Rapide Cuisine ambulante",
            "cover": "tnbm1vbhkufjntsyiz5t",
            "tags": "Asiatique, Cuisine française, Sandwiches-Salades",
            "starttime": "11:00",
            "endtime": "14:00",
            "location": {
                "city": "Thionville",
                "country": "France",
                "street": "Route des Romains",
                "street_number": "45",
                "zipcode": "57100",
                "region": "Grand Est",
                "state": "Moselle",
                "latlng": "49.3604073,6.1388169"
            }
        },
        {
            "name": "Where is Tom?",
            "slug": "where-is-tom",
            "slogan": "",
            "cover": "anh48pgxnwplhzkmtzjr",
            "tags": "Burger",
            "starttime": "12:00",
            "endtime": "14:30",
            "location": {
                "latlng": "47.7077536,-3.3812694"
            }
        },
        {
            "name": "Mon Camion Courtepaille - la Valette du Var",
            "slug": "mon-camion-courtepaille-la-valette-du-var",
            "slogan": "Manger vite et bon au coin de la rue",
            "cover": "ebjdj8nhohevyl49gcch",
            "tags": "Burger, Américain",
            "starttime": "11:30",
            "endtime": "14:30",
            "location": {
                "latlng": "43.1404924,6.0025605"
            }
        },
        {
            "name": "SHEF MITTONNE",
            "slug": "shef-mittonne",
            "slogan": "Tout est possible dans la limite du possible",
            "cover": "qiujlbwmjyzrpta6p9rt",
            "tags": "Cuisine française, Burger, Poisson",
            "starttime": "9:00",
            "endtime": "23:55",
            "location": {
                "latlng": "49.3834178,-1.6794615"
            }
        },
        {
            "name": "La Vache Folle",
            "slug": "la-vache-folle",
            "slogan": "Vachement Frais Follement Bon",
            "cover": "onmrvmpp4o0rhnexilml",
            "tags": "Burger, Américain",
            "starttime": "11:30",
            "endtime": "14:30",
            "location": {
                "latlng": "43.136121,6.0254064"
            }
        },
        {
            "name": "Times of Burger",
            "slug": "times-of-burger",
            "slogan": "",
            "cover": "ptnwcevf2cjhnymtj62p",
            "tags": "Burger, Américain",
            "starttime": "18:30",
            "endtime": "21:30",
            "location": {
                "latlng": "43.1294859,6.1614585"
            }
        },
        {
            "name": "Le Burger",
            "slug": "le-burger",
            "slogan": "Leburger, the french touch",
            "cover": "pkho6hgzmxdarumta5fw",
            "tags": "Burger, Sandwiches-Salades, Américain",
            "starttime": "11:30",
            "endtime": "14:00",
            "location": {
                "city": "Fréjus",
                "country": "France",
                "street": "Avenue Jean Lachenaud",
                "street_number": "1586",
                "zipcode": "83600",
                "region": "Provence-Alpes-Côte d'Azur",
                "state": "Var",
                "latlng": "43.4705959,6.7367911"
            }
        },
        {
            "name": "Toulet tout beurre tout crème",
            "slug": "toulet-tout-beurre-tout-creme",
            "slogan": "Notre passion, Votre plaisir !",
            "cover": "dgisiedynifooivgb8r1",
            "tags": "Cuisine française, Pizza, Sucré",
            "starttime": "8:30",
            "endtime": "13:00",
            "location": {
                "city": "Montreuil",
                "country": "France",
                "street": "Place du Général de Gaulle",
                "street_number": "31",
                "zipcode": "62170",
                "region": "Hauts-de-France",
                "state": "Pas-de-Calais",
                "latlng": "50.4614787,1.7597254"
            }
        },
        {
            "name": "Miam j'ai faim",
            "slug": "miam-j-ai-faim",
            "slogan": "miam j'ai faim, c'est mon truck",
            "cover": "y7ptxwptyzpk1o3yg9io",
            "tags": "Cuisine française, Cuisine du Monde",
            "starttime": "9:00",
            "endtime": "14:30",
            "location": {
                "city": "Guingamp",
                "country": "France",
                "street": "Rue Edouard Ollivro",
                "street_number": "37",
                "zipcode": "22200",
                "region": "Bretagne",
                "state": "Côtes-d'Armor",
                "latlng": "48.5624119,-3.152352"
            }
        },
        {
            "name": "Green Vibes Snack",
            "slug": "green-vibes-snack",
            "slogan": "100% Vegan, Bio, Fait Maison",
            "cover": "ul1c5lwtxjzrv342dadc",
            "tags": "Burger, Cuisine du Monde, Méditerranéen",
            "starttime": "8:00",
            "endtime": "13:30",
            "location": {
                "city": "Cannes",
                "country": "France",
                "street": "Rue du Marché Forville",
                "street_number": "16",
                "zipcode": "06400",
                "region": "Provence-Alpes-Côte d'Azur",
                "state": "Alpes-Maritimes",
                "latlng": "43.5521807,7.0129283"
            }
        },
        {
            "name": "Original food truck Mania",
            "slug": "original-food-truck-mania",
            "slogan": "Un événement d'un nouveau genre",
            "cover": "xw4vsimg9kakflkctebp",
            "tags": "Burger, Poisson, Libanais",
            "starttime": "10:00",
            "endtime": "15:00",
            "location": {
                "city": "Cannes",
                "country": "France",
                "street": "Rue Jean de Riouffe",
                "street_number": "8",
                "zipcode": "06400",
                "region": "Provence-Alpes-Côte d'Azur",
                "state": "Alpes-Maritimes",
                "latlng": "43.552847,7.017369"
            }
        },
        {
            "name": "Son of a Bun Antibes",
            "slug": "son-of-a-bun-antibes",
            "slogan": "BADASS BURGERS meilleurs Burgers de la côte d'Azur",
            "cover": "iyyrrtnay9ltndrknf6i",
            "tags": "Burger",
            "starttime": "11:30",
            "endtime": "14:30",
            "location": {
                "city": "Antibes",
                "country": "France",
                "street": "Avenue Nicolas Aussel",
                "street_number": "13-15",
                "zipcode": "06600",
                "region": "Provence-Alpes-Côte d'Azur",
                "state": "Alpes-Maritimes",
                "latlng": "43.577744,7.1070763"
            }
        },
        {
            "name": "Le P'tit Resto Mobile",
            "slug": "le-p-tit-resto-mobile",
            "slogan": "",
            "cover": "fsvouexdtuk3254ox6su",
            "tags": "Burger",
            "starttime": "12:00",
            "endtime": "21:00",
            "location": {
                "city": "Fouesnant",
                "country": "France",
                "street": "Descente du Loc'h",
                "street_number": "40",
                "zipcode": "29940",
                "region": "Bretagne",
                "state": "Finistère",
                "latlng": "47.8860953,-3.988073"
            }
        },
        {
            "name": "Monde de Food",
            "slug": "monde-de-food",
            "slogan": "Faites une pause pour dévorer le Monde!",
            "cover": "noiaxlrdfk36mx5doykb",
            "tags": "Cuisine du Monde, Américain, Tex-Mex",
            "starttime": "12:00",
            "endtime": "14:00",
            "location": {
                "city": "Sangatte",
                "country": "France",
                "street": "Route nationale",
                "street_number": "1",
                "zipcode": "62231",
                "region": "Hauts-de-France",
                "state": "Pas-de-Calais",
                "latlng": "50.9589755,1.8269006"
            }
        },
        {
            "name": "Pizza Tony",
            "slug": "pizza-tony",
            "slogan": "Reconnu depuis 25 ans",
            "cover": "a8zprtfpdx4nuzbexokf",
            "tags": "Pizza",
            "starttime": "18:00",
            "endtime": "22:00",
            "location": {
                "city": "Franconville",
                "country": "France",
                "street": "Allée Hector Berlioz",
                "street_number": "2",
                "zipcode": "95130",
                "region": "Île-de-France",
                "state": "Val-d'Oise",
                "latlng": "48.986011,2.229632"
            }
        },
        {
            "name": "My French Burger",
            "slug": "my-french-burger",
            "slogan": "",
            "cover": "yze44c069gg5jjzufa6p",
            "tags": "Burger",
            "starttime": "11:30",
            "endtime": "15:00",
            "location": {
                "city": "Antibes",
                "country": "France",
                "street": "Chemin des Terriers",
                "street_number": "1880",
                "zipcode": "06600",
                "region": "Provence-Alpes-Côte d'Azur",
                "state": "Alpes-Maritimes",
                "latlng": "43.6007022,7.0764782"
            }
        }
    ]
}
